,id,Venue,Locality,Sector,Venue Latitude,Venue Longitude,Local Latitude,Local Longitude,Distance
2000,18824566,Saucery,Jacob Circle,South,18.980983,72.826749,18.9810531,72.82678629995553,8.720391623039745
900,48467,The Tuck Box,Girgaon,South,18.9543731956,72.8179682046,18.9543165,72.8179082,8.914331984498459
901,36983,Say Cheese,Girgaon,South,18.954383,72.817968,18.9543165,72.8179082,9.701038684766957
0,18685948,National Hindu Hotel,Colaba,South,18.9151928955,72.8260168433,18.915091,72.8259691,12.385632246413763
6900,18703814,Healthy Box,Versova,West,19.1301648591,72.8214597702,19.13025205,72.8213774957082,12.980421389726343
1,43917,Shakti Bar & Restaurant,Colaba,South,18.915203045,72.8260235488,18.915091,72.8259691,13.703674220262714
1001,19330981,Beyond Pancakes,Mandvi,South,18.9550117,72.8346655,18.9550564,72.8347919,14.182843002111456
1000,19330921,Beyond Burgers,Mandvi,South,18.9550117,72.8346655,18.9550564,72.8347919,14.182843002111456
9100,18716705,Al's Kitchen and Grill,Orlem,North,19.1946026855,72.839051038,19.1944819,72.8389662,16.10686257189506
6901,18618380,The Buvette,Versova,West,19.1301379344,72.8214795515,19.13025205,72.8213774957082,16.601648159735596
6902,44267,Taste Of China,Versova,West,19.130183548,72.8215224668,19.13025205,72.8213774957082,17.017750980348683
8100,45683,Bangalore Iyengar's Bakery,Goregaon (West),North,19.163179,72.84124,19.1633281,72.8411995,17.105441646418626
902,18636585,Cheese Express - The Snacks Bar,Girgaon,South,18.9544537381,72.817985639,18.9543165,72.8179082,17.286440170237295
7200,16527724,Chilli Spice,NITIE,East,19.1350343543,72.8999562934,19.1349868,72.8997985,17.388436461583026
9101,19596258,Marve Bakery,Orlem,North,19.1943487422,72.8388777003,19.1944819,72.8389662,17.47054771865876
9102,18716803,Al's Kitchen & Grill,Orlem,North,19.1946435317,72.8389403969,19.1944819,72.8389662,18.16432940046272
6903,19108087,A.Dough.Rable,Versova,West,19.1301414188,72.821511738,19.13025205,72.8213774957082,18.702340835326904
1002,19372831,Cream Bell,Mandvi,South,18.954918,72.834894,18.9550564,72.8347919,18.753190331543312
903,18854997,Ari & Vin,Girgaon,South,18.954430273,72.8180490062,18.9543165,72.8179082,19.46400110936246
904,18987526,Milk Licious,Girgaon,South,18.954492741,72.8178830445,18.9543165,72.8179082,19.762446460679527
1500,32397,Cafe Samundar,Nagpada,South,18.9681010121,72.8284281492,18.9681782,72.8286009,20.078878078389973
905,18825663,Tiwari Panwala,Girgaon,South,18.9544781546,72.8179946914,18.9543165,72.8179082,20.132887792625624
906,19125260,Vasant Fresh Juice & Snacks Centre,Girgaon,South,18.954498,72.817868,18.9543165,72.8179082,20.60697984533864
907,18825669,Galaxy Snacks Corner,Girgaon,South,18.9544727639,72.8180161491,18.9543165,72.8179082,20.74261591091517
9103,19522408,Muscles And Meals,Orlem,North,19.1946723457,72.8389263153,19.1944819,72.8389662,21.573273950728307
9104,19504204,The Shawarma Grill,Orlem,North,19.1946774119,72.8389209509,19.1944819,72.8389662,22.239204018617546
8900,19571955,Celebaketion Cakes,Malad (East),North,19.1860029931,72.8560993,19.1860219,72.8563181,23.059598783821766
9900,18790337,Baskin Robbins,Borivali West,North,19.2292692261,72.8478932753,19.2294561,72.8479905,23.13675878811528
908,18344247,YOLO,Girgaon,South,18.9543478279,72.8181324899,18.9543165,72.8179082,23.828472879004522
909,18288539,Shalimar Juice Centre,Girgaon,South,18.9545314268,72.8178887442,18.9543165,72.8179082,23.97113736735823
9200,18767134,Jumboking - Indian Burger,Kandivli (West),North,19.2008662841,72.8485450521,19.2006415,72.8485534,24.99451623839947
6904,41773,Chandru's Pure Ghee Sweets,Versova,West,19.1300967555,72.8215573356,19.13025205,72.8213774957082,25.579369071245807
9105,19304628,The Brooklyn Creamery - Low Cal Ice Cream,Orlem,North,19.194449,72.838714,19.1944819,72.8389662,26.71906110572925
6905,34071,Seven Hills,Versova,West,19.1301217796,72.8215982392,19.13025205,72.8213774957082,27.325218019393258
1800,18572042,Fusion Fast Food,Tulsi Wadi,South,18.97795,72.81944,18.9779948,72.8191822,27.544486500612766
6906,34063,The Rice & Bowl,Versova,West,19.1300539927,72.8215462714,19.13025205,72.8213774957082,28.25566467934701
700,19024136,New Kayani Restaurant & Stores,Marine Lines,South,18.9458570312,72.8239723295,18.9456701,72.823781,28.912058815378398
910,18664307,Ulta Pizza,Girgaon,South,18.9545840647,72.8178310767,18.9543165,72.8179082,30.81820652388619
911,19045007,Patil Fast Food Centre,Girgaon,South,18.954538,72.817727,18.9543165,72.8179082,31.12129856906187
912,18378201,Apsara Ice Creams,Girgaon,South,18.9540484884,72.8180064261,18.9543165,72.8179082,31.521291158460937
913,41677,Kisan Panipuri & Bhelpuri Wala,Girgaon,South,18.9541594723,72.8181599826,18.9543165,72.8179082,31.697714180016533
5600,18710533,Kya Lenge Aap,Vile Parle (East),West,19.0963674389,72.8480890766,19.0962884,72.8483799,31.777279811679442
10100,19554406,Rohit Wadewale ,Dahisar,North,19.2496332,72.8598705,19.2494501,72.8596206,33.1867797128514
914,40621,Ne'thing for Chocolate,Girgaon,South,18.9540497567,72.8180567175,18.9543165,72.8179082,33.50054741050095
5100,19176040,Bake N Nuts,Tagore Road,West,19.081803902,72.8361753747,19.0821047,72.836199,33.51816708917293
5101,19247677,Hangout Cakes & More,Tagore Road,West,19.0818029514,72.8361783922,19.0821047,72.836199,33.60161601242491
9106,19484723,KD's Corner,Orlem,North,19.194663,72.839228,19.1944819,72.8389662,34.05721668227889
915,18605890,Wowfillss,Girgaon,South,18.9540307309,72.8180506825,18.9543165,72.8179082,35.10980385060777
8700,19449892,Shree Krishna Foods,Mulund Colony,East,19.1780506538,72.9385219916,19.1777778,72.9383511,35.22887334127724
6907,35865,Pop Tate's,Versova,West,19.1301081589,72.8216810524,19.13025205,72.8213774957082,35.65627085906649
3900,18749919,Kailash Dairy,Dharavi,West,19.0446781228,72.8583646193,19.044463,72.8586177,35.751906714084626
3901,36275,Hotel Himalaya,Dharavi,West,19.0445082512,72.8582761064,19.044463,72.8586177,36.23256731126134
4300,19135171,The Belgian Waffle Co.,Bandra (East),West,19.061739198,72.8494687378,19.0616565,72.8498111,37.11465540083133
2500,18726786,Pakiza Hotel,Sewri,South,19.0017349949,72.8543885797,19.001418,72.8542575,37.82274702497493
3000,19011819,Jumboking - Indian Burger,Dadar,South,19.0194385487,72.8425536677,19.019282,72.8428757,38.042877672578264
916,36984,Khana Khazana,Girgaon,South,18.9543402176,72.818270959,18.9543165,72.8179082,38.21684019242224
4301,32817,Ujala Restaurant & Bar,Bandra (East),West,19.0617769081,72.8494694084,19.0616565,72.8498111,38.301672071121494
1700,18894922,Amul Ice Cream Parlour,Mumbai Central,South,18.969337,72.819043,18.9695855,72.8193152,39.759805331686856
3902,18467864,National Restaurant,Dharavi,West,19.0448023572,72.8584843129,19.044463,72.8586177,40.22990293618943
4800,18645995,Joe's Pizza,Khar,West,19.0725027192,72.8340983391,19.0724575,72.8337068,41.42728349016038
917,19276435,Casa Filata,Girgaon,South,18.9543754153,72.8183054924,18.9543165,72.8179082,42.26543915145531
5102,18795756,D'oh Boy,Tagore Road,West,19.081717084,72.8361783922,19.0821047,72.836199,43.12820721605148
7201,19396742,Ramada Powai - Coffee Shop,NITIE,East,19.1352548133,72.9000957683,19.1349868,72.8997985,43.13949342583575
7202,46397,Amrut Restaurant & Bar,NITIE,East,19.1352573473,72.9000967741,19.1349868,72.8997985,43.410488469428515
7204,18613850,Bar 87 - Ramada Powai Hotel and Convention Centre,NITIE,East,19.1352570306,72.9000974447,19.1349868,72.8997985,43.43696374021548
7203,37843,Herb & Spice - Ramada Powai Hotel and Convention Centre,NITIE,East,19.1352570306,72.9000974447,19.1349868,72.8997985,43.43696374021548
7205,44656,Skky - Ramada Powai Hotel and Convention Centre,NITIE,East,19.1352573473,72.9000974447,19.1349868,72.8997985,43.46130146305763
7206,37868,Cafe Ambrosia - Ramada Powai Hotel and Convention Centre,NITIE,East,19.1352582976,72.9000971094,19.1349868,72.8997985,43.509048476983025
7207,36871,Fusion - The Residence Hotel,NITIE,East,19.1352586143,72.900099121,19.1349868,72.8997985,43.68578769525832
6100,18605394,China Gate,Saki Naka,East,19.10807365,72.88318731,19.1082208,72.8835824,44.591788532434876
6300,18133543,Lume Restaurant & Bar,Andheri (East),West,19.1157918367,72.853783071,19.1158835,72.854202,45.150509376670534
1003,19033983,Juice Box Minara,Mandvi,South,18.9550438536,72.8343588486,18.9550564,72.8347919,45.534709641569286
4801,18881666,Super Natural,Khar,West,19.0724821226,72.8341405839,19.0724575,72.8337068,45.64025325315161
5103,18710840,Anand Dosa,Tagore Road,West,19.0816920526,72.8362068906,19.0821047,72.836199,45.86297600342496
7208,18747418,Lake View Cafe - Renaissance Hotel,NITIE,East,19.1352582976,72.9001279548,19.1349868,72.8997985,45.89731370310912
5104,49316,Avarya,Tagore Road,West,19.0816895178,72.8361877799,19.0821047,72.836199,46.15221358854982
918,19302653,Roti Rollers,Girgaon,South,18.9543741469,72.8183484077,18.9543165,72.8179082,46.70706506106952
2001,16505318,Hotel Swagat,Jacob Circle,South,18.9810214524,72.8272305429,18.9810531,72.82678629995553,46.81458896079406
2002,19188299,Brijwasi,Jacob Circle,South,18.9806657265,72.8269730508,18.9810531,72.82678629995553,47.30911026342751
6908,18775262,Bistro 1 Bar & Kitchen,Versova,West,19.1300321362,72.8217682242,19.13025205,72.8213774957082,47.74949946233246
1400,46666,Green Field,Mazgaon,South,18.9681989869,72.8404397517,18.9680519,72.84001187036267,47.84499501914178
919,48261,Daryush Bakery,Girgaon,South,18.9545561603,72.8182890639,18.9543165,72.8179082,48.078793966700516
9901,18598739,Biryani Barbeque Chinese By  Borivali Biryani Centre,Borivali West,North,19.2298203744,72.8477400541,19.2294561,72.8479905,48.26145982533087
6600,19489208,Ghargruti Kitchens,MIDC,West,19.1201059,72.8644712,19.1205119,72.8646365,48.33986695974942
6909,35885,Appointment,Versova,West,19.1300901035,72.8218097985,19.13025205,72.8213774957082,48.82445106154608
9902,36065,Dwara Restaurant & Bar,Borivali West,North,19.2290397124,72.8478349373,19.2294561,72.8479905,49.06566097374001
2003,41451,Shiv Punjab,Jacob Circle,South,18.9812116798,72.8272248432,18.9810531,72.82678629995553,49.33777332248932
1200,19273305,Pubzee Hunger Kitchen & Fast Food,Dongri,South,18.9624323289,72.8372140601,18.9622265,72.836795,49.626299326973296
1501,19318755,Bombay Charcoal,Nagpada,South,18.9679665742,72.8290199116,18.9681782,72.8286009,49.92064138723571
10101,18745201,Dayanand Bar & Restaurant,Dahisar,North,19.2495085458,72.8600926325,19.2494501,72.8596206,49.946109848573826
2501,42876,Shahi Sagar Bakery,Sewri,South,19.0018446791,72.8544130549,19.001418,72.8542575,50.15266959018146
9107,19286125,Kings Shawarma,Orlem,North,19.194024,72.838959,19.1944819,72.8389662,50.88979959374413
920,18656031,Keventers - Milkshakes & Ice Creams,Girgaon,South,18.9545307926,72.8183420375,18.9543165,72.8179082,51.44007794612905
6101,19128182,Bohri Mohalla,Saki Naka,East,19.10814,72.8831,19.1082208,72.8835824,51.44279701118527
9108,34755,Tandoor,Orlem,North,19.1947055926,72.8385363892,19.1944819,72.8389662,51.50341317681749
6102,18748200,Tea Post,Saki Naka,East,19.1081327,72.8840669,19.1082208,72.8835824,51.80708761383662
9109,19284141,Mughlai Dastak,Orlem,North,19.1940678843,72.8387378901,19.1944819,72.8389662,51.872949610343724
4302,18745546,Flavours Of China,Bandra (East),West,19.0619629236,72.8494355455,19.0616565,72.8498111,52.109644629711184
6301,18760249,The Indian Toss,Andheri (East),West,19.1157759973,72.8537166864,19.1158835,72.854202,52.338321526245906
2,18431512,Sangam,Colaba,South,18.915566,72.825923,18.915091,72.8259691,53.0064320734734
8300,19510383,Dial A Biryani,Goregaon (East),North,19.1697143844,72.8554292768,19.1692623,72.8552548,53.47186458075737
921,18675437,Snaxx,Girgaon,South,18.9544854478,72.8183852881,18.9543165,72.8179082,53.54132809366345
2004,35717,Hotel Shivprasad,Jacob Circle,South,18.9815097024,72.8269519284,18.9810531,72.82678629995553,53.64205268668559
8800,19288009,Yash Juice & Fast Food Corner,Malad (West),North,19.1844322999,72.8414797783,19.1840129,72.8412155,54.2351449361395
2005,19423670,The Kitchenary,Jacob Circle,South,18.980687,72.82644,18.9810531,72.82678629995553,54.583389593330025
6103,48323,Persian Darbar,Saki Naka,East,19.107762,72.883395,19.1082208,72.8835824,54.64971634695798
4303,18986594,New Annapurna Sweet & Farsan,Bandra (East),West,19.0613202663,72.8494261578,19.0616565,72.8498111,55.05228556174261
6000,19595818,La Sanazaar,Juhu,West,19.1072838,72.8270801,19.1070215,72.8275275,55.28632745338254
4802,35021,Domino's Pizza,Khar,West,19.0726104555,72.8342096508,19.0724575,72.8337068,55.47973210805724
2006,19011923,Mahalaxmi Services Juice Centre,Jacob Circle,South,18.9815005081,72.8265502676,18.9810531,72.82678629995553,55.56159984289852
4304,19539733,Delish Munchies,Bandra (East),West,19.0619961972,72.8494181111,19.0616565,72.8498111,55.93489859163051
3001,17806966,Panshikar & Co.,Dadar,South,19.0191558088,72.8423558548,19.019282,72.8428757,56.385843430190626
4305,18555113,The Shawarma Fusion,Bandra (East),West,19.0615202255,72.8492863476,19.0616565,72.8498111,57.15830359139009
6302,18585706,AndaMental - The Express Takeaway,Andheri (East),West,19.1159562499,72.853658013,19.1158835,72.854202,57.6865358870283
1401,19580239,Hotel Jagdamba,Mazgaon,South,18.9676977463,72.8404137411,18.9680519,72.84001187036267,57.72759805692326
9110,19291882,Sweety Da Dhaba,Orlem,North,19.1943994043,72.8395117074,19.1944819,72.8389662,57.978959809173915
2007,16542250,Free India Restaurant,Jacob Circle,South,18.9814241002,72.8263953701,18.9810531,72.82678629995553,58.20021698573319
2008,18140652,Cafe National,Jacob Circle,South,18.98138764,72.8272154555,18.9810531,72.82678629995553,58.444535161141204
4306,19182915,The Fusion House,Bandra (East),West,19.0621606638,72.8499763459,19.0616565,72.8498111,58.6520458122335
4307,19217890,The Beard Chef's Cafe,Bandra (East),West,19.0621612976,72.8499773517,19.0616565,72.8498111,58.750637930898776
3400,42328,A.Rama Nayak's Udipi Shri Krishna Boarding,Matunga,West,19.0274802699,72.8507072479,19.0274356,72.8501467,59.0963724616022
5105,35111,Bakers & More,Tagore Road,West,19.0815859065,72.836050652,19.0821047,72.836199,59.718950059945016
400,19505428,CTO Vada Pav,Hutatma Chowk,South,18.932877,72.831035,18.933307,72.831377,59.79629966637355
3002,46079,Shagun,Dadar,South,19.0190857577,72.8423437849,19.019282,72.8428757,59.986661765553656
4308,40623,Domino's Pizza,Bandra (East),West,19.0612366065,72.8494513035,19.0616565,72.8498111,60.04429385213757
6601,19600639,Wok Havoc,MIDC,West,19.1206413,72.8640783,19.1205119,72.8646365,60.34617938904202
1004,19354439,Al Baik - Al Brost,Mandvi,South,18.954939,72.834231,18.9550564,72.8347919,60.37650543340952
3401,45608,Udipi Sri Krishna,Matunga,West,19.0274089545,72.8507246822,19.0274356,72.8501467,60.79122502058035
2009,19566671,Cheese Please,Jacob Circle,South,18.9815106536,72.8264677897,18.9810531,72.82678629995553,60.872979050019076
4309,19565059,Snacks In Second's,Bandra (East),West,19.0621349956,72.8500946984,19.0616565,72.8498111,60.94760002819499
4310,18467908,Ribbons & Balloons,Bandra (East),West,19.0621644665,72.8495880961,19.0616565,72.8498111,61.11440609524896
7900,18608034,Litti Express Delivery Kitchen,Oshiwara,West,19.1496932875,72.8342532367,19.1502437,72.8342294,61.215814822801796
2010,18419756,Hotel Shree Ram,Jacob Circle,South,18.9815968898,72.8269220889,18.9810531,72.82678629995553,62.09053302168707
2400,18866621,Bhandara,Nehru Nagar,South,19.0013041825,72.8188979253,19.0010485,72.8194265,62.383391641112645
4311,19283728,Ice Cream Works,Bandra (East),West,19.0622177042,72.8497453406,19.0616565,72.8498111,62.74518111255784
6104,18392682,Northern Tadka,Saki Naka,East,19.1080672,72.8841582,19.1082208,72.8835824,62.82357283072999
6602,19330582,Stranka Kitchen,MIDC,West,19.120627,72.864048,19.1205119,72.8646365,63.099203897332444
2011,19334341,Brijwasi,Jacob Circle,South,18.9805519067,72.827071622,18.9810531,72.82678629995553,63.252674037371406
922,18816726,Cafe 2.0,Girgaon,South,18.9547093177,72.8183477372,18.9543165,72.8179082,63.55692165077709
2401,19165750,Lajjat,Nehru Nagar,South,19.0013555377,72.818915695,19.0010485,72.8194265,63.59757570454841
2402,19292577,Edesia by Freshmenu,Nehru Nagar,South,19.0013555377,72.8189153597,19.0010485,72.8194265,63.627309299137366
6105,19098846,Chimichurri,Saki Naka,East,19.107726,72.883276,19.1082208,72.8835824,63.70560933548248
6106,18210381,Slice of Lime,Saki Naka,East,19.1076698121,72.8837587684,19.1082208,72.8835824,63.967949630565265
5106,19522102,Krishna Frankie & Sandwich,Tagore Road,West,19.081554,72.836021,19.0821047,72.836199,63.98802172286535
4312,18669312,Baskin Robbins,Bandra (East),West,19.0614604088,72.8492354973,19.0616565,72.8498111,64.26383604605404
6107,17974916,Jughead's,Saki Naka,East,19.1078555,72.8840612,19.1082208,72.8835824,64.61784826935349
4313,19565050,Pizza & Sandwich Center,Bandra (East),West,19.0621014052,72.8494083881,19.0616565,72.8498111,65.06464623900978
2700,47088,Havmor Ice Cream,Prabhadevi,South,19.0153365537,72.827565819,19.0148811,72.8279556,65.10442342207217
8600,19249068,The Team Dine,Dindoshi,North,19.174524444,72.8692020848,19.1740198,72.8695219,65.35760360026075
8301,19495029,Ashirvad Snacks,Goregaon (East),North,19.1697261017,72.8556388244,19.1692623,72.8552548,65.43048385591784
8601,19315288,Gupta Pani Puri Center,Dindoshi,North,19.1745358443,72.8692191839,19.1740198,72.8695219,65.55943305584086
8101,19025214,Shree Potobaya Namaha,Goregaon (West),North,19.1630828652,72.8406291828,19.1633281,72.8411995,65.77568001463398
9111,19009452,Gargi's Milkshakes,Orlem,North,19.194299,72.838368,19.1944819,72.8389662,65.98768793632361
9112,19165901,Deepak Bhelpuri House,Orlem,North,19.1949579521,72.8385853395,19.1944819,72.8389662,66.30366123644964
3003,19496387,Zatpat Zaldee,Dadar,South,19.0192849,72.8435079,19.019282,72.8428757,66.41887724049325
4314,19565036,Saavi's Magic Kitchen,Bandra (East),West,19.0622034441,72.8495488688,19.0616565,72.8498111,66.72861680292014
2701,19431073,Nomou Ice Creams,Prabhadevi,South,19.014941,72.827323,19.0148811,72.8279556,66.79436611495024
9201,19221777,Hungrry Tummys,Kandivli (West),North,19.2011800594,72.8488411009,19.2006415,72.8485534,67.03204424250292
2012,19170720,Maratha Kitchen,Jacob Circle,South,18.981598158,72.8265093639,18.9810531,72.82678629995553,67.19790634689275
4315,19565141,Siddivinayak Snacks Corner,Bandra (East),West,19.0615379715,72.8491834179,19.0616565,72.8498111,67.22953844466178
9202,18340802,Havmor Ice Cream,Kandivli (West),North,19.2011540962,72.8489014506,19.2006415,72.8485534,67.66700998348723
4803,19246527,The BlueBop Cafe,Khar,West,19.0726513318,72.8343182802,19.0724575,72.8337068,67.73662096120584
10102,35817,Veg Malhar,Dahisar,North,19.2488704171,72.8598220646,19.2494501,72.8596206,67.79623517831357
4804,19034701,The Kebab Factory,Khar,West,19.0726380232,72.8343246505,19.0724575,72.8337068,67.91985596664136
9113,19304659,The Brooklyn Creamery - Low Cal Ice Cream,Orlem,North,19.195094,72.839017,19.1944819,72.8389662,68.2282940769881
9114,19304765,The Brooklyn Creamery - Low Cal Ice Cream,Orlem,North,19.195094,72.839017,19.1944819,72.8389662,68.2282940769881
5107,19122061,Cake Basket,Tagore Road,West,19.0815082773,72.836040929,19.0821047,72.836199,68.32487145129394
1300,18614319,Frost Bite,Grant Road,South,18.9640177279,72.8131070361,18.9644472,72.8135727,68.3566919162312
8801,19227497,Le China (Pure Veg),Malad (West),North,19.1846103,72.8410447,19.1840129,72.8412155,68.76384340945371
1502,42913,Hotel Jyoti,Nagpada,South,18.9676697957,72.8289753199,18.9681782,72.8286009,68.84862782183895
2013,19102952,Dilkhush Family Restaurant,Jacob Circle,South,18.9814196616,72.8262558952,18.9810531,72.82678629995553,69.03489940919
9903,38338,Sapna Sagar,Borivali West,North,19.2288494531,72.847848013,19.2294561,72.8479905,69.05161105038415
2300,19574074,Monk Chinese,Delisle Road,South,18.9938704,72.831136,18.9932602,72.8310115,69.05890882957837
8802,19223173,The Jalsa By Nanumal Bhojraj,Malad (West),North,19.1844465495,72.8407421708,19.1840129,72.8412155,69.21051868743987
4316,19527873,Ravi Juice Center,Bandra (East),West,19.0621498895,72.8494026884,19.0616565,72.8498111,69.61455977649653
1701,19128106,Yess Pizza,Mumbai Central,South,18.9695107017,72.8199751675,18.9695855,72.8193152,69.85233058849592
9203,32017,Season's,Kandivli (West),North,19.2010654412,72.8490496427,19.2006415,72.8485534,70.22431943514441
4805,18788305,Punjab Sind,Khar,West,19.0727143892,72.834319286,19.0724575,72.8337068,70.37610256547812
2301,19254258,Om's Dehlii Darbar Mithaiwala,Delisle Road,South,18.9929314915,72.8315898031,18.9932602,72.8310115,70.89924229408776
1503,18140605,Deliure & The Eatrium,Nagpada,South,18.9675895766,72.8288616613,18.9681782,72.8286009,70.9192562458801
1402,19451009,Anando,Mazgaon,South,18.9684736952,72.8405223801,18.9680519,72.84001187036267,71.24115313563027
4317,19197711,Aagri Tadka,Bandra (East),West,19.0614993106,72.8491475433,19.0616565,72.8498111,71.85027367484537
1005,18386381,Chunkies,Mandvi,South,18.9549836055,72.8341090679,18.9550564,72.8347919,72.21959700726559
4318,18938184,7 King,Bandra (East),West,19.0618586662,72.8504651785,19.0616565,72.8498111,72.27909879181945
2403,18959063,J Magic Fries,Nehru Nagar,South,19.0010356771,72.8187363222,19.0010485,72.8194265,72.53111875012539
2404,19606683,Paddy's Kitchen,Nehru Nagar,South,19.0010166566,72.8187343106,19.0010485,72.8194265,72.81451789506673
3700,19108556,Mao Family Restaurant,Mahim,West,19.041666,72.8396988,19.0423145,72.8398344,73.45885634841596
3402,19475729,Gupta Chat,Matunga,West,19.027298,72.850832,19.0274356,72.8501467,73.59912504170616
9115,19489529,Cream & Crumbs - Cake Cafe,Orlem,North,19.1941517935,72.8383580223,19.1944819,72.8389662,73.61730191688127
4319,19565048,Sagar Chinese & Juice Center,Bandra (East),West,19.0621761915,72.8493748605,19.0616565,72.8498111,73.71927069763149
3903,18467868,Sansar Hotel,Dharavi,West,19.0451126259,72.8587652743,19.044463,72.8586177,73.83535238525886
923,18223198,Dairy Don,Girgaon,South,18.9547575163,72.8184352443,18.9543165,72.8179082,73.95991184063826
4320,18557928,90ML Bar & Kitchen,Bandra (East),West,19.0620915815,72.8503448144,19.0616565,72.8498111,74.02673020001855
2405,18597077,Fish Fiesta,Nehru Nagar,South,19.0013174968,72.8187789023,19.0010485,72.8194265,74.31972556180942
3904,19598071,Zaika Food & Stories,Dharavi,West,19.044259148,72.8579431772,19.044463,72.8586177,74.38695612691913
1301,17803690,Parsi Amelioration Committee,Grant Road,South,18.9639733369,72.8130714968,18.9644472,72.8135727,74.4804475320284
6603,19074666,Cibo Food And Beverages Services,MIDC,West,19.1204444448,72.8639281914,19.1205119,72.8646365,74.74536700779309
6108,18306468,TAP,Saki Naka,East,19.1075880766,72.8833282739,19.1082208,72.8835824,75.20459489384167
4806,19227311,Hungry Yard,Khar,West,19.072731,72.834363,19.0724575,72.8337068,75.3214461351729
3,19068114,Gomunch Cafe,Colaba,South,18.914412,72.826021,18.915091,72.8259691,75.65095132923348
8500,19515334,Hidden Punjab,Mulund (West),East,19.1722188378,72.9505232315,19.1719717,72.9511956,75.72826335298345
2406,19478713,Worli Vada Pav Kendra,Nehru Nagar,South,19.001074986,72.8187021241,19.0010485,72.8194265,76.16720050115715
1006,19583573,Divine Dessert,Mandvi,South,18.955197203,72.8340800152,18.9550564,72.8347919,76.43708550872152
1504,18424812,Zaytoni,Nagpada,South,18.967609235,72.8290101886,18.9681782,72.8286009,76.46991837427649
2302,19280527,Kavi Bakery & Confectionery,Delisle Road,South,18.9937668457,72.8305149078,18.9932602,72.8310115,76.76261798138225
9116,48346,Mangoes,Orlem,North,19.1951403346,72.8387399018,19.1944819,72.8389662,76.92645548102693
7901,19486349,MC Burger,Oshiwara,West,19.1500134947,72.8335283697,19.1502437,72.8342294,77.910684301174
7902,19489968,Tangy Pasta,Oshiwara,West,19.1500138114,72.8335280344,19.1502437,72.8342294,77.93238843623004
6604,35575,Hotel Sai Dham,MIDC,West,19.1208271142,72.8639721125,19.1205119,72.8646365,78.05775444244395
7903,19093972,Midnight Pizza,Oshiwara,West,19.1500185622,72.8335246816,19.1502437,72.8342294,78.09426002990764
10103,36653,Monginis,Dahisar,North,19.2495465295,72.8603598475,19.2494501,72.8596206,78.29295402164404
9904,19539488,Chal Kuch Khate Hai,Borivali West,North,19.229679,72.848699,19.2294561,72.8479905,78.35744585593226
7904,18980181,Foodie Food,Oshiwara,West,19.1500594195,72.8335085884,19.1502437,72.8342294,78.3897700451386
6910,41136,Bottles,Versova,West,19.1299957086,72.8220736608,19.13025205,72.8213774957082,78.44419955725398
1302,18471998,N. Lookmanji's Mithaiwala,Grant Road,South,18.9638382615,72.813189514,18.9644472,72.8135727,78.74457469488509
9204,19424461,Baithack - Taste Of Kulhad,Kandivli (West),North,19.2012763132,72.8488950804,19.2006415,72.8485534,79.13369636641976
6605,19534101,Bombay Kebab Company,MIDC,West,19.1207377825,72.8639191389,19.1205119,72.8646365,79.39152333214527
6606,19504100,Mumbai Junction,MIDC,West,19.1209413895,72.8640316974,19.1205119,72.8646365,79.43698920122233
1007,19451536,Badshah Shawarma,Mandvi,South,18.955734,72.834542,18.9550564,72.8347919,79.74744993004299
924,49941,Sree Venky,Girgaon,South,18.9547194648,72.81727653,18.9543165,72.8179082,80.07872044284986
5700,19222024,Kinara Restaurant,Sahar,West,19.099828,72.8680059,19.0995955,72.867284,80.0870801113637
6109,44568,Global Fusion,Saki Naka,East,19.1075114099,72.8834375739,19.1082208,72.8835824,80.2844413982045
4321,18613827,Chef Tush-R's College Days,Bandra (East),West,19.0623609389,72.849981375,19.0616565,72.8498111,80.29781292846512
9205,19183110,Pitara - The Cake Shop,Kandivli (West),North,19.2011132516,72.849133797,19.2006415,72.8485534,80.36231852779503
4500,18175505,Deepak Farsan Mart,Kurla,East,19.0659763068,72.8791628033,19.0652797,72.8793805,80.71662984440438
6607,19136174,Krrish Sandwich,MIDC,West,19.1201758155,72.8639533371,19.1205119,72.8646365,80.8690277189871
9905,41143,5 Spice,Borivali West,North,19.2300824937,72.8475978971,19.2294561,72.8479905,80.88396194235015
8803,19582939,Cloud Rasoda,Malad (West),North,19.1833467996,72.8408907,19.1840129,72.8412155,81.4929643988069
9117,36685,Monginis,Orlem,North,19.1937515624,72.8390366212,19.1944819,72.8389662,81.49465520041217
9206,18820614,Ek Cutting,Kandivli (West),North,19.2011227503,72.8491448611,19.2006415,72.8485534,81.93093323404254
925,19201664,Jumboking - Indian Burger,Girgaon,South,18.95357375,72.81786393,18.9543165,72.8179082,82.66921511731165
2303,19593815,Jugaadi Adda,Delisle Road,South,18.993972,72.83125,18.9932602,72.8310115,82.97379516258955
1505,37427,The American Express Bakery,Nagpada,South,18.9685718612,72.8292737156,18.9681782,72.8286009,83.14520001422383
2014,19566535,Fresh And Frozen,Jacob Circle,South,18.9814602434,72.8261157498,18.9810531,72.82678629995553,83.7381094287201
2502,19248871,Grand Darbar Restaurant,Sewri,South,19.0021718293,72.8542843089,19.001418,72.8542575,83.8167116257764
2503,19265754,ZW Chinese,Sewri,South,19.0021683422,72.8543580696,19.001418,72.8542575,84.04875146948157
6110,18744755,Roots Of India,Saki Naka,East,19.1085928,72.8842841,19.1082208,72.8835824,84.48447105437381
2702,19216381,The Balti Biryani by Masala Street,Prabhadevi,South,19.0152319501,72.8272365779,19.0148811,72.8279556,85.00936428293033
2504,18883844,Cafe Lucky,Sewri,South,19.0021810224,72.8543429822,19.001418,72.8542575,85.26531717236566
2304,18140545,Subhash Delhi Darbar Mithaiwala,Delisle Road,South,18.9926883345,72.8315549344,18.9932602,72.8310115,85.43425314782448
6608,19068547,Taste Of Malvan,MIDC,West,19.1204735886,72.8638232499,19.1205119,72.8646365,85.49289186627647
1506,19249355,Beyond Burgers,Nagpada,South,18.9675572,72.8291012,18.9681782,72.8286009,86.75569605512874
5500,18697499,Red Dragon Chinese Corner,Barve Nagar,East,19.0945025919,72.9002054036,19.0952831,72.9001776,86.7831789847473
1201,19539321,Chilli n Pepper,Dongri,South,18.962515,72.837563,18.9622265,72.836795,86.84670165159659
3004,19252794,Flavorico,Dadar,South,19.0188702156,72.8421657532,19.019282,72.8428757,87.504490336551
4600,18419920,Steamy Mugs,Tilak Nagar,East,19.0700079717,72.8976673633,19.0692377,72.8978464,87.6375684479018
4322,41569,Hotel Savaji,Bandra (East),West,19.0620266188,72.850552015,19.0616565,72.8498111,88.0200266212754
3403,39150,Arya Bhavan,Matunga,West,19.0271129159,72.8509121016,19.0274356,72.8501467,88.04146107888201
1702,19310619,Santosh Pure Veg Restaurant,Mumbai Central,South,18.9688264679,72.819561772,18.9695855,72.8193152,88.23805291651547
6111,19012839,The Mimu,Saki Naka,East,19.10749213,72.88391667,19.1082208,72.8835824,88.25343073053128
9118,39122,Birdy's,Orlem,North,19.1937075496,72.8387704119,19.1944819,72.8389662,88.4690010091413
4501,19362672,Shree Guru Nanak,Kurla,East,19.066005777,72.8790283576,19.0652797,72.8793805,88.75834180464125
5108,18480377,Tender Fresh Ice Cream,Tagore Road,West,19.0815200009,72.8356157988,19.0821047,72.836199,89.2913522101977
9800,19442438,Maza Maharashtra Polibhaji Kendra,Gorai Suburb,North,19.2301132009,72.8263092041,19.2293526,72.826585,89.33837618473
4601,18415762,Cake Treaat,Tilak Nagar,East,19.0695976165,72.8970826417,19.0692377,72.8978464,89.63336382882567
1008,18823592,Ajju Nasta Centre,Mandvi,South,18.9547806643,72.8339883685,18.9550564,72.8347919,89.83753827896544
1507,19078834,Grills And Rice,Nagpada,South,18.9674633821,72.8290004656,18.9681782,72.8286009,89.85000683413352
6911,19496013,Starbucks Coffee,Versova,West,19.1303985913,72.8222241992,19.13025205,72.8213774957082,90.3732131829594
6609,42712,Hot Sandwich,MIDC,West,19.120126081,72.8638775647,19.1205119,72.8646365,90.48623582861804
9906,18793481,La Pino'z Pizza,Borivali West,North,19.2301097186,72.8474735096,19.2294561,72.8479905,90.65404542297456
6610,34308,Shashi Restaurant & Bar,MIDC,West,19.1201241803,72.8638765588,19.1205119,72.8646365,90.67942236108557
4323,18552074,Sugar Lipss,Bandra (East),West,19.0623565025,72.8493671492,19.0616565,72.8498111,90.69290717987703
7600,19299686,Mother's Kitchen,Lokhandwala,West,19.143957,72.824374,19.1431889,72.824081,90.72834446226382
6611,18793089,Yummy Your Tummy,MIDC,West,19.1201254474,72.8638745472,19.1205119,72.8646365,90.79863963247605
3404,18833884,Matunga Fast Food,Matunga,West,19.0269290801,72.8508286178,19.0274356,72.8501467,91.10562665723054
2305,18426866,Cake N Walkerss,Delisle Road,South,18.9924724412,72.8312605619,18.9932602,72.8310115,91.36792185560377
5109,19446585,Baskin Robbins,Tagore Road,West,19.081282,72.836225,19.0821047,72.836199,91.46339734447974
9600,19124201,Hurrycane,Charkop,North,19.2134092,72.8254183,19.2141193,72.8258652,91.79307561364513
1508,19241580,Bawa Food Spot,Nagpada,South,18.967374602,72.828804329,18.9681782,72.8286009,91.82330789471516
2200,19093457,Zen Hen,Parel Tank Road,South,18.9910100024,72.8421828523,18.9917011,72.8417031,91.86516096478599
1009,18867083,Bakers Royale,Mandvi,South,18.9549056,72.8339260072,18.9550564,72.8347919,92.53470925061883
9207,39182,Sanjay Ice Cream,Kandivli (West),North,19.2011749934,72.8492323682,19.2006415,72.8485534,92.69127257399461
4807,19445069,Bombay Bake House,Khar,West,19.0718715101,72.834335044,19.0724575,72.8337068,92.70346196520487
1509,19034737,Beyond Pancakes,Nagpada,South,18.9677677707,72.8293699399,18.9681782,72.8286009,92.80047340025865
9300,18896500,Cakes R Us,Kandivli (East),North,19.2088913,72.8622062,19.2080542,72.8621435,93.25523631585602
401,41712,Chetan Restaurant & Bar,Hutatma Chowk,South,18.9326046779,72.8318660706,18.933307,72.831377,93.45520176338788
926,41623,Voice Of India Restaurant,Girgaon,South,18.9548659631,72.8185817599,18.9543165,72.8179082,93.48560428479381
5110,37016,Gokul Ice Creams,Tagore Road,West,19.0815678458,72.8355125338,19.0821047,72.836199,93.57530798085996
1202,19370528,The Big Boss Cafe And Lounge,Dongri,South,18.962677,72.836042,18.9622265,72.836795,93.64148246652867
927,18749374,Shamee Food Space,Girgaon,South,18.9534802491,72.817790173,18.9543165,72.8179082,93.75274144161105
6112,18432733,Little China,Saki Naka,East,19.1074661069,72.8839951381,19.1082208,72.8835824,94.40142539922594
2407,41510,Apsara Ice Cream,Nehru Nagar,South,19.0009015827,72.818540521,19.0010485,72.8194265,94.51083735504528
6612,18937480,Koani Aaswad,MIDC,West,19.119858,72.864058,19.1205119,72.8646365,94.70713734108028
4324,45925,Cakes 'N' Cream,Bandra (East),West,19.0623606221,72.8493027762,19.0616565,72.8498111,94.7253003234426
8400,18711383,EFC Shawarma,Mulund (East),East,19.1708322789,72.9618630186,19.1704719,72.9610447,94.7700395330252
2800,19130229,Eat & Meet,Wadala Village,South,19.016713652,72.8548876473,19.0158783,72.8550732,94.85342882593066
9119,18714352,Monginis,Orlem,North,19.1937464962,72.8394349292,19.1944819,72.8389662,95.38508714197714
2408,19447104,Sai Leela Lunch Home,Nehru Nagar,South,19.001791739,72.8189690039,19.0010485,72.8194265,95.56234741559939
8302,49338,Cakebred Co,Goregaon (East),North,19.1695383074,72.8543862328,19.1692623,72.8552548,96.18887122660783
4,17832355,Bangalore Iyengar's Bakery,Colaba,South,18.9152255641,72.8250599653,18.915091,72.8259691,96.73491695173232
8102,34826,Shabari,Goregaon (West),North,19.1633007531,72.8421208262,19.1633281,72.8411995,96.75686699865943
4602,19237033,Tingly Vingly,Tilak Nagar,East,19.0696178966,72.8970172629,19.0692377,72.8978464,96.78966609544925
4603,19291437,Tingly Vingly By JMD Foods,Tilak Nagar,East,19.0696178966,72.8970172629,19.0692377,72.8978464,96.78966609544925
2306,41495,Janta Bar N Restaurant,Delisle Road,South,18.9940255352,72.8314523399,18.9932602,72.8310115,96.84425066225666
2307,19345756,Bhairvaj Misal,Delisle Road,South,18.9939951012,72.8315100074,18.9932602,72.8310115,97.02092599095721
5300,19416360,D-Light,Pant Nagar,East,19.0862762855,72.9148777088,19.0868209,72.9156026,97.25103861602825
3005,18567821,Darbar Hindu Hotel,Dadar,South,19.0187605426,72.8421315551,19.019282,72.8428757,97.31296218340897
3701,45064,New Garam Masala,Mahim,West,19.0419436749,72.840674445,19.0423145,72.8398344,97.38956280577852
4604,19027727,Chatori Galli,Tilak Nagar,East,19.0685769526,72.8972328454,19.0692377,72.8978464,97.6925397947684
4605,48886,Choco Kisses,Tilak Nagar,East,19.0700887751,72.8976110369,19.0692377,72.8978464,97.75293076892869
1403,18714360,Monginis,Mazgaon,South,18.9685841505,72.8407588716,18.9680519,72.84001187036267,98.29046907258932
7905,18657245,Welcome,Oshiwara,West,19.1511217045,72.8340943158,19.1502437,72.8342294,98.59345695574756
7300,38090,Hotel Cafe Deluxe,Jogeshwari (West),West,19.1360976862,72.8364962339,19.136394,72.8373817,98.6197431301539
1010,42938,Chinese N Grill,Mandvi,South,18.9548719879,72.8338730335,18.9550564,72.8347919,98.72256028070758
5701,19252568,Pizza Chef,Sahar,West,19.098992,72.866594,19.0995955,72.867284,98.72883877711385
4606,18935243,Filmy Caf√©,Tilak Nagar,East,19.0696264523,72.8969984874,19.0692377,72.8978464,98.97882470906215
1404,42886,Monginis,Mazgaon,South,18.9686308362,72.8407277539,18.9680519,72.84001187036267,98.98930519574654
9909,19503674,The Urban Vadapav,Borivali West,North,19.2302196,72.8475023,19.2294561,72.8479905,99.10822528328126
9908,19513522,Wok It Upp!!,Borivali West,North,19.2302196,72.8475023,19.2294561,72.8479905,99.10822528328126
9907,19513519,Indian Panini House,Borivali West,North,19.2302196,72.8475023,19.2294561,72.8479905,99.10822528328126
6113,19555306,Food Fantasy,Saki Naka,East,19.107402,72.8839635,19.1082208,72.8835824,99.4000088828226
3006,45853,Panshikar,Dadar,South,19.0198804082,72.8421681002,19.019282,72.8428757,99.74141108952558
9910,37215,Deepak,Borivali West,North,19.2285711867,72.8481511027,19.2294561,72.8479905,99.76950050316336
1510,18753057,Rolex Restaurant,Nagpada,South,18.967286456,72.8287516907,18.9681782,72.8286009,100.3542214671851
9911,19513536,Asta La Vistaa Pasta,Borivali West,North,19.2302499586,72.847533524,19.2294561,72.8479905,100.40604963498909
3007,49522,Neww Shrikrishna Bhojnalay,Dadar,South,19.020028751,72.8423327208,19.019282,72.8428757,100.69867872297871
2505,19011841,Arab Restaurant,Sewri,South,19.0006505,72.8537475,19.001418,72.8542575,100.72522487809947
8701,19495188,Viyonas Palate,Mulund Colony,East,19.1770068472,72.9388573766,19.1777778,72.9383511,100.81354517895569
3008,49754,Shree Vrundavan Hotel,Dadar,South,19.020028751,72.842329368,19.019282,72.8428757,100.89863580241115
3405,19577576,Mamta Chat Corner,Matunga,West,19.0273997,72.8511065,19.0274356,72.8501467,100.90927233413635
7301,18926437,Hotel Shree Krishna,Jogeshwari (West),West,19.1360938852,72.8364741057,19.136394,72.8373817,100.95128133058193
3702,19207466,Sadguru Dosa Corner,Mahim,West,19.0420314645,72.8407502174,19.0423145,72.8398344,101.21236043263502
6500,19037625,Knotty Yard,Powai,East,19.1182120836,72.9065468162,19.1187195,72.9073476,101.23602147730682
800,32704,Anand Bhuvan,Kalbadevi,South,18.9489992725,72.8288636729,18.9492575,72.8279382,101.41436298731696
3703,19519529,Gentlemens Tava And Grill,Mahim,West,19.0416605,72.8405078,19.0423145,72.8398344,101.41733831294489
4607,19213233,Naivedya Pure Veg,Tilak Nagar,East,19.0695117428,72.8969247267,19.0692377,72.8978464,101.47776023819371
5501,41423,China Town Restaurant,Barve Nagar,East,19.0943783948,72.9000421241,19.0952831,72.9001776,101.53704668657247
3800,36911,Peninsula Next,Sion East,West,19.0421312973,72.8647140786,19.0428153,72.8653563,101.62950881418016
9912,19145267,Kwality Wall's,Borivali West,North,19.2285730862,72.8477353603,19.2294561,72.8479905,101.71127957924253
3406,19440605,New Pankaj-Sandwich & Pani Puri,Matunga,West,19.0270679078,72.8510348126,19.0274356,72.8501467,101.85438473615045
928,19201465,Archie Refreshment,Girgaon,South,18.953406,72.818028,18.9543165,72.8179082,101.95982953234284
6303,19051744,Lucknow Express,Andheri (East),West,19.11666,72.85368,19.1158835,72.854202,102.22381566581323
3704,18704887,Wan Shan Pan-Asian Cuisine,Mahim,West,19.0420282952,72.8407602757,19.0423145,72.8398344,102.32606151080272
9913,19245269,Agent Jack's Bar,Borivali West,North,19.2285980953,72.8476247191,19.2294561,72.8479905,102.7805277265801
9500,18875010,Gupta Bhelpuri Center,Poisar,North,19.214131078,72.8464016318,19.2132196,72.8466024,103.45590560104439
8103,18674006,Cheesecode,Goregaon (West),North,19.163446,72.842179,19.1633281,72.8411995,103.64683660160487
7906,19520075,A Hot Tin Roof,Oshiwara,West,19.1511312061,72.833924666,19.1502437,72.8342294,103.68253350556871
1011,19454014,Burgs N' Fries,Mandvi,South,18.9541309646,72.8346601944,18.9550564,72.8347919,103.76651494711497
6001,18585374,Six 2 Twelve,Juhu,West,19.1076751978,72.8268201649,19.1070215,72.8275275,103.89061328210326
6912,19338108,Cafe WCM - Waffle Coffee and More,Versova,West,19.1300296021,72.8223395348,19.13025205,72.8213774957082,103.98390881123875
7302,37350,Hotel Shree Krishna,Jogeshwari (West),West,19.1361125735,72.8364368901,19.136394,72.8373817,104.00372312125776
9120,18505327,The Shawarma Fellow,Orlem,North,19.1940982816,72.8380606323,19.1944819,72.8389662,104.16017728937632
9914,19137147,Ministry Of Eggs,Borivali West,North,19.2303731037,72.8477833048,19.2294561,72.8479905,104.19534735096465
7907,19282809,F24 Corner,Oshiwara,West,19.15,72.83327,19.1502437,72.8342294,104.29112433567842
5200,18762310,Shiv Sai Bhelpuri,Sen Nagar,West,19.0822886873,72.8426093236,19.0828321,72.8434193,104.3178396077229
2308,43020,Chaitanya's Bangalore Iyengar's Bakery,Delisle Road,South,18.9926315872,72.8317500651,18.9932602,72.8310115,104.41362147659062
9915,19501867,Burgiess Burgers N More,Borivali West,North,19.230265787,72.8474842384,19.2294561,72.8479905,104.48662812135899
5,19236734,New India,Colaba,South,18.9152577,72.8249883,18.915091,72.8259691,104.75681269014343
4808,19264759,Khao Piyo,Khar,West,19.0715495672,72.8339773044,19.0724575,72.8337068,104.81766923417874
929,18567925,Vegans Delight,Girgaon,South,18.9550987111,72.818467766,18.9543165,72.8179082,104.9489560174019
6913,19449600,Mohan Foods,Versova,West,19.1296672,72.8221639,19.13025205,72.8213774957082,105.07434376162394
801,19424906,Annapurna Pav Bhaji,Kalbadevi,South,18.9501464,72.8282835,18.9492575,72.8279382,105.23505463939837
9916,19501877,The Crazy Waffle,Borivali West,North,19.2302683195,72.847469151,19.2294561,72.8479905,105.54081945509513
9917,19503685,Friesathon,Borivali West,North,19.230279716,72.8474896029,19.2294561,72.8479905,105.54104343055907
10104,19382422,Shree Mithai,Dahisar,North,19.249506,72.860627,19.2494501,72.8596206,105.76634898506867
3407,46653,Sharda Bhavan,Matunga,West,19.0267309809,72.8508242592,19.0274356,72.8501467,105.81889527013988
5502,36109,Ashirwad Hotel & Caterers,Barve Nagar,East,19.0943730087,72.8998798504,19.0952831,72.9001776,105.85701184431821
10105,19413394,Shree Mithai,Dahisar,North,19.249506,72.860628,19.2494501,72.8596206,105.87108039683503
2506,18379423,Tasty Wok,Sewri,South,19.0023484013,72.8540281579,19.001418,72.8542575,106.16190031287184
2409,18420614,Orbango,Nehru Nagar,South,19.0007554419,72.818464078,19.0010485,72.8194265,106.23653907399395
9121,19146678,Darshu's Kitchen,Orlem,North,19.1954414554,72.8389253095,19.1944819,72.8389662,106.71702005715574
2703,19433758,Kwality Wall's Dessert & Ice Creams,Prabhadevi,South,19.013977,72.827612,19.0148811,72.8279556,106.75680586993654
6914,35851,Peppr Pinch,Versova,West,19.1295528757,72.8220750019,19.13025205,72.8213774957082,106.76750083319253
9801,19595029,Khadaad Cafe,Gorai Suburb,North,19.22986,72.82745,19.2293526,72.826585,106.84877399533418
3009,19098755,Gutt Gully,Dadar,South,19.0189073015,72.8419381008,19.019282,72.8428757,106.9420729755284
930,16527356,Panchratna Jalebi House,Girgaon,South,18.9548640605,72.8170706704,18.9543165,72.8179082,107.00775523249615
802,47065,Krishna Murari,Kalbadevi,South,18.9490030778,72.8289203346,18.9492575,72.8279382,107.02707130004005
9918,18817016,Payal Farsan,Borivali West,North,19.2286047434,72.84751039,19.2294561,72.8479905,107.18310385433207
2704,19517433,Varni's Kitchen,Prabhadevi,South,19.0158466,72.8279973,19.0148811,72.8279556,107.38070601754985
6,44894,Laxmi,Colaba,South,18.9153565557,72.8249865398,18.915091,72.8259691,107.42369651627081
1012,18794332,Hunger Hub Fast Food,Mandvi,South,18.954293,72.83542,18.9550564,72.8347919,107.49108835468938
7400,19581810,Prince Street Pizza,Poonam Nagar,West,19.1377184861,72.869707346,19.1369178,72.869128,107.77801435850004
8303,49388,Me Marathi,Goregaon (East),North,19.1699932874,72.8559304745,19.1692623,72.8552548,107.8344820580065
7908,19053739,Rakhi Restaurant,Oshiwara,West,19.1492774289,72.8343407437,19.1502437,72.8342294,108.01127696033892
7401,19575801,Town House Pizza,Poonam Nagar,West,19.1377387579,72.8696858883,19.1369178,72.869128,108.41169511753772
7303,19068792,Amber Restaurant,Jogeshwari (West),West,19.1354236416,72.8375057504,19.136394,72.8373817,108.61479593220717
3010,32507,Adarsha,Dadar,South,19.0198426885,72.8420269489,19.019282,72.8428757,108.7802079086396
931,18318097,Just Bite,Girgaon,South,18.9549683849,72.8171330318,18.9543165,72.8179082,109.01829945661271
9919,18982611,Chai Master By Food Adda,Borivali West,North,19.2303151717,72.8474782035,19.2294561,72.8479905,109.5573146808579
4608,19607133,London Bubble Co.,Tilak Nagar,East,19.0701476,72.8982504,19.0692377,72.8978464,109.65473345333764
8104,45687,Havmor Ice Cream,Goregaon (West),North,19.1632019435,72.8422391787,19.1633281,72.8411995,110.02907536024568
6200,18629203,El Poutino,Marol Village,East,19.1136515993,72.8782562166,19.1144347,72.8776145,110.0583246108354
932,19483149,The Tuck Box,Girgaon,South,18.9552973,72.8177594,18.9543165,72.8179082,110.10777055946873
2309,19582572,Cafe Bae-Beyond all Eateries,Delisle Road,South,18.9922933225,72.8312434629,18.9932602,72.8310115,110.17425007646054
8304,19516094,Asha Lunch Home And Chinese Corner,Goregaon (East),North,19.1690797462,72.8542202711,19.1692623,72.8552548,110.46654296219462
3705,46637,New Step In Family Restaurant & Bar,Mahim,West,19.0417436921,72.8406992555,19.0423145,72.8398344,110.80111414933462
9920,19328573,Night Evil,Borivali West,North,19.2285980953,72.8474517167,19.2294561,72.8479905,110.84542438087855
7601,34877,High Point,Lokhandwala,West,19.144189,72.824082,19.1431889,72.824081,111.1362755681977
10000,19494680,Tawa Treats,Mount Poinsur,North,19.2436535589,72.851802595,19.2432246,72.8527611,111.28838361000601
9921,18453961,Food Adda,Borivali West,North,19.2302847811,72.8473937139,19.2294561,72.8479905,111.35997403137429
4325,32825,Chinaar,Bandra (East),West,19.0607013735,72.8501335904,19.0616565,72.8498111,111.41226649671081
7402,19525529,Little Italy Pizza,Poonam Nagar,West,19.1377400249,72.8697358444,19.1369178,72.869128,111.44798370268065
1013,19226336,KGN Fast Food,Mandvi,South,18.9559878438,72.8343980759,18.9550564,72.8347919,111.4756899098763
9122,18669420,The Local Eatery,Orlem,North,19.1950440772,72.8380857781,19.1944819,72.8389662,111.53528097972702
9922,36069,Night Evil,Borivali West,North,19.2285993616,72.8474356234,19.2294561,72.8479905,111.59599066274457
9923,17806952,Mee Marathi,Borivali West,North,19.2303626,72.8475323,19.2294561,72.8479905,111.61934843553325
7403,19551471,Pizza Castle,Poonam Nagar,West,19.1377832432,72.8696686004,19.1369178,72.869128,111.67002848456652
3408,17758750,Gupta Chat Centre,Matunga,West,19.0275145013,72.851206474,19.0274356,72.8501467,111.67768642470084
1014,19304554,The Brooklyn Creamery - Low Cal Ice Cream,Mandvi,South,18.954458,72.835651,18.9550564,72.8347919,112.1353262544652
7800,19098116,Ladachi kulfi,Bhandup (East),East,19.1476751127,72.9475876316,19.1485568,72.9470657,112.2570379119028
6114,19556648,Shawarma Stock Exchange,Saki Naka,East,19.10734,72.884106,19.1082208,72.8835824,112.26321636953321
9924,19501553,Bombay Sandwich Badshah,Borivali West,North,19.2303493611,72.8474892676,19.2294561,72.8479905,112.33512586974176
9123,38173,J.B. Dynasty,Orlem,North,19.1941866236,72.8379392624,19.1944819,72.8389662,112.65890227898458
9124,19022805,Soda Frankee Hut,Orlem,North,19.1940400202,72.8379996121,19.1944819,72.8389662,112.70087969622872
6002,36387,Alfredo's,Juhu,West,19.1071686272,72.8264654428,19.1070215,72.8275275,112.71135454909306
6501,35667,Utsav Cuisine,Powai,East,19.1181541121,72.9064549506,19.1187195,72.9073476,112.83499398569816
10001,39725,Chhotu's Kitchen,Mount Poinsur,North,19.2436709688,72.8517945483,19.2432246,72.8527611,112.88843891464295
8804,19097073,Isha Foods House,Malad (West),North,19.184329,72.842238,19.1840129,72.8412155,112.91809262933306
3801,36714,Monginis,Sion East,West,19.0426092262,72.8643020242,19.0428153,72.8653563,113.08805400697639
7909,18881523,K2 Rolls,Oshiwara,West,19.1512601114,72.8341600299,19.1502437,72.8342294,113.18333957465617
6915,18415149,Lee Annes Kitchen,Versova,West,19.1292893294,72.8217437491,19.13025205,72.8213774957082,113.68303464083043
7404,19554329,The Pizza Cutter,Poonam Nagar,West,19.1377776122,72.8697162848,19.1369178,72.869128,113.76960609995339
6916,18608570,Pizzaah! District,Versova,West,19.129425854,72.8220190108,19.13025205,72.8213774957082,113.86634260889838
9125,17760249,Fizzy,Orlem,North,19.1937474461,72.8397229314,19.1944819,72.8389662,113.87848344380251
6917,19576998,Creamyz,Versova,West,19.1295905,72.8222064,19.13025205,72.8213774957082,113.9204083804213
3409,40490,Durga Restaurant And Bar,Matunga,West,19.0265639435,72.8507209942,19.0274356,72.8501467,114.11551721891692
2801,19558493,A 1 Snacks Centre,Wadala Village,South,19.0169069304,72.8551000121,19.0158783,72.8550732,114.34137341136666
9501,18512290,Fisco Restobar,Poisar,North,19.2122742105,72.8461719677,19.2132196,72.8466024,114.35470131990793
3300,19421955,Cottage Snacks,Bhavanishankar Road,South,19.0226808314,72.8346740082,19.022237,72.8356574,114.48093592434364
4400,19609659,KGN Caterers,Shivaji Nagar,East,19.063262,72.9258389,19.0637885,72.9249,114.66340745351187
1303,18412850,Amar Fast Food & Restaurant,Grant Road,South,18.9651696693,72.8127922118,18.9644472,72.8135727,114.77594403279693
2507,18969771,Calorie Care,Sewri,South,19.0004691831,72.8546920046,19.001418,72.8542575,114.89684729314725
5201,18762315,Occasion Cake Shop,Sen Nagar,West,19.0823343141,72.8424594551,19.0828321,72.8434193,114.98205739483554
2802,19582228,Kiki Fast Food,Wadala Village,South,19.0169139039,72.8550577679,19.0158783,72.8550732,115.09302104533639
933,40663,Sukh Sagar,Girgaon,South,18.9549807517,72.8170679882,18.9543165,72.8179082,115.09377397179209
3011,42728,Jolly Lunch Home,Dadar,South,19.020282645,72.8431588411,19.019282,72.8428757,115.10677941220915
934,18693509,MP Jain Snacks,Girgaon,South,18.9550026312,72.8170874342,18.9543165,72.8179082,115.12885829694376
3410,19056637,Whatta Waffle!,Matunga,West,19.026812,72.851023,19.0274356,72.8501467,115.22561120207466
935,19116690,Aarti Ice Cream Parlour,Girgaon,South,18.9553298734,72.8181462362,18.9543165,72.8179082,115.35667674685014
9502,18205945,Al Shawarma,Poisar,North,19.212304921,72.8471228108,19.2132196,72.8466024,115.38494224157648
1511,19555469,Taj Tadka Dhaba,Nagpada,South,18.96714,72.828657,18.9681782,72.8286009,115.52063299973874
9400,19343496,The Chicken Kitchen,Thakur Village,North,19.210737,72.875701,19.2097189,72.8759248,115.54829069865262
1512,19602196,Samnani Cool Point,Nagpada,South,18.9671396,72.8286571,18.9681782,72.8286009,115.56556174902002
9504,19608743,Hungry Head,Poisar,North,19.2122891,72.8461079,19.2132196,72.8466024,115.69186051134605
9503,19608693,Little China Town,Poisar,North,19.2122891,72.8461079,19.2132196,72.8466024,115.69186051134605
9505,19608767,Oh! Pizzaz,Poisar,North,19.2122891,72.8461079,19.2132196,72.8466024,115.69186051134605
4326,19576273,Magic Shawarma,Bandra (East),West,19.0622278873,72.8488889513,19.0616565,72.8498111,115.81249593694918
4502,19043415,Shalimar Restaurant,Kurla,East,19.066324245,72.8794015199,19.0652797,72.8793805,116.09617458609165
8402,19537618,The Naple's Pizzeria,Mulund (East),East,19.1694836,72.9606828,19.1704719,72.9610447,116.20871703440946
8401,19537679,The Comfort Zone,Mulund (East),East,19.1694836,72.9606828,19.1704719,72.9610447,116.20871703440946
3802,19252463,Khalifa Biryani,Sion East,West,19.0428434362,72.8642487153,19.0428153,72.8653563,116.38689453238115
2705,18334523,Shashi Coastal Treat,Prabhadevi,South,19.0158900009,72.8282564878,19.0148811,72.8279556,116.48559618751574
5202,42615,Vaishno Food Point,Sen Nagar,West,19.0823542758,72.8424309567,19.0828321,72.8434193,116.58777460919735
936,19418486,Hungry Kya?,Girgaon,South,18.9549385113,72.8170144748,18.9543165,72.8179082,116.6215139865357
803,19564289,Sukh Sagar Juice Centre,Kalbadevi,South,18.94852,72.82873,18.9492575,72.8279382,116.80007419770199
2706,35958,Home Deli,Prabhadevi,South,19.0138952368,72.8275688365,19.0148811,72.8279556,116.84708229307361
4327,32833,Hotel Sanjay,Bandra (East),West,19.0606931342,72.8502576426,19.0616565,72.8498111,116.8773850857378
4503,46839,Shalimar Restaurant,Kurla,East,19.0662979437,72.8796704113,19.0652797,72.8793805,117.1777619569863
4809,19022596,Yogurt World,Khar,West,19.071537,72.834253,19.0724575,72.8337068,117.27789168142534
5203,18630516,Mumma's Recipe,Sen Nagar,West,19.0823951498,72.8424017876,19.0828321,72.8434193,117.37235344403886
937,39936,Jalsa Hotel,Girgaon,South,18.9553276537,72.8182313964,18.9543165,72.8179082,117.38655534742699
3803,39053,Central Peninsula,Sion East,West,19.0426792674,72.864247039,19.0428153,72.8653563,117.49750502892816
3411,18467881,Amul Ice Cream Parlour,Matunga,West,19.0264770967,72.8506230935,19.0274356,72.8501467,117.68553532350252
7700,19593373,Mad Khaugali,Bhandup West,East,19.1469570901,72.9347938299,19.1462636,72.9339461,117.72267729039304
804,17935458,Agrawal Sweets,Kalbadevi,South,18.9486019371,72.8288217634,18.9492575,72.8279382,118.02965412926402
3804,49057,Peninsula,Sion East,West,19.0420232243,72.8646061197,19.0428153,72.8653563,118.14052531647857
8105,18764351,Huckleberry's,Goregaon (West),North,19.1629048809,72.842233479,19.1633281,72.8411995,118.28568108518236
1015,18934614,Beyond Waffles,Mandvi,South,18.954663,72.835838,18.9550564,72.8347919,118.31701428479802
7305,19499474,The Burger Bros,Jogeshwari (West),West,19.1354315604,72.8368985653,19.136394,72.8373817,118.36916594831291
7304,18935498,BFC (Burger Fries Corner) By Food 7,Jogeshwari (West),West,19.1354315604,72.8368985653,19.136394,72.8373817,118.36916594831291
9126,19576105,Merwans Cake Shop,Orlem,North,19.1938010316,72.8398341227,19.1944819,72.8389662,118.41206929313387
8106,48394,Dairy Don,Goregaon (West),North,19.1628405912,72.8422039747,19.1633281,72.8411995,118.54056953660444
3012,37436,Shree Krishna Batatawada,Dadar,South,19.0202854978,72.8424926475,19.019282,72.8428757,118.55301566883641
4100,19323665,The Bombay Chow,Chembur West,East,19.057133,72.898259,19.0571098,72.8993875,118.55973592055534
3805,46333,Sai Amrut Fast Food Centre,Sion East,West,19.0433226308,72.8643617034,19.0428153,72.8653563,118.7165996273781
8107,18841294,Cakes & More,Goregaon (West),North,19.1629935564,72.8422737122,19.1633281,72.8411995,118.72771902998167
1304,19179181,Amar Veg Restaurant,Grant Road,South,18.9652150112,72.8127868474,18.9644472,72.8135727,118.74658487755798
2310,18610035,Cake Walkers,Delisle Road,South,18.9922968097,72.8315009549,18.9932602,72.8310115,118.76945023812671
7602,19613024,Goan Cafe,Lokhandwala,West,19.1427356748,72.8251075745,19.1431889,72.824081,118.95792776143665
10002,18415748,Nantu's Kitchen,Mount Poinsur,North,19.2437893557,72.8517972305,19.2432246,72.8527611,119.01679186221241
2311,18936371,Prakash Bar and Kitchen,Delisle Road,South,18.9943070498,72.830764018,18.9932602,72.8310115,119.20229086406295
5111,18509931,The Belgian Waffle Co.,Tagore Road,West,19.0810367975,72.836089544,19.0821047,72.836199,119.22621474408764
2803,19559615,Prezzo Pizzeria,Wadala Village,South,19.0169407847,72.854912281,19.0158783,72.8550732,119.27299054142728
7910,19539326,King Wok Oshiwara,Oshiwara,West,19.1511312061,72.8335877135,19.1502437,72.8342294,119.43314298550037
7405,19523438,Roma's Pizza,Poonam Nagar,West,19.1377156,72.8698904,19.1369178,72.869128,119.44107217328389
4328,19064276,Amar Fast Food & Restaurant,Bandra (East),West,19.0606066221,72.8500574827,19.0616565,72.8498111,119.50335834820649
6304,32627,Maharaja,Andheri (East),West,19.1163468493,72.855229117,19.1158835,72.854202,119.5058059049917
2707,38258,Sarang Bandhu,Prabhadevi,South,19.0138591007,72.827601023,19.0148811,72.8279556,119.52340735321893
9127,19574888,Neighbourhood,Orlem,North,19.1934982511,72.8394302353,19.1944819,72.8389662,119.6657757043733
6918,45382,Hangout Cakes & More,Versova,West,19.1293742217,72.8220397979,19.13025205,72.8213774957082,119.7946846247068
8805,19332748,Spicy Bro Rolls,Malad (West),North,19.183468,72.842206,19.1840129,72.8412155,120.3065244658363
8108,19527177,Momos Time,Goregaon (West),North,19.163002,72.842293,19.1633281,72.8411995,120.36635727531892
7911,18745651,Welcome Restaurant,Oshiwara,West,19.1513209217,72.8340829164,19.1502437,72.8342294,120.68999654518733
4609,19616364,Rut Food Hub,Tilak Nagar,East,19.0682672083,72.8973301127,19.0692377,72.8978464,120.710538956924
100,18715857,Garage Inc. Public House,Henry Road,South,18.919999,72.830751,18.9203617,72.8318368,121.04778129218141
8109,43811,Deepak Juice Center,Goregaon (West),North,19.1631873754,72.8400548548,19.1633281,72.8411995,121.1637698360762
1703,19230131,Nothing But Chicken,Mumbai Central,South,18.9687668589,72.820077762,18.9695855,72.8193152,121.2349301186733
6201,18291390,The Creamery,Marol Village,East,19.1140640629,72.8765285388,19.1144347,72.8776145,121.23497359807567
7912,18465031,Moo Moo Milk‚Ñ¢,Oshiwara,West,19.1511878991,72.8336420283,19.1502437,72.8342294,121.70042298925561
938,40627,Modern Lunch Home,Girgaon,South,18.9553374837,72.8183309734,18.9543165,72.8179082,121.8473839623752
939,41625,Manohar Pav Bhaji,Girgaon,South,18.9553701444,72.8182330728,18.9543165,72.8179082,121.96319624694739
940,18336714,Juicity,Girgaon,South,18.9553726812,72.8182364255,18.9543165,72.8179082,122.33274704307576
9506,42841,Melting Moments,Poisar,North,19.2123840718,72.847363539,19.2132196,72.8466024,122.47494010469022
3905,19610857,Swage A Stomach Settler,Dharavi,West,19.0455677278,72.858581543,19.044463,72.8586177,122.82173925909242
8806,19480312,China Bite,Malad (West),North,19.183319,72.842127,19.1840129,72.8412155,122.8733903946865
2708,19606420,Dinshaw's Ice-Cream Parlour,Prabhadevi,South,19.0159459,72.8282728,19.0148811,72.8279556,122.92936465432797
9208,19119484,Vishwas Sweet,Kandivli (West),North,19.2011939909,72.8495726734,19.2006415,72.8485534,123.33344326020328
941,18471959,Al Baik- Al Brost,Girgaon,South,18.9552908707,72.8184721246,18.9543165,72.8179082,123.43674611832779
7406,37358,New Lom Chings,Poonam Nagar,West,19.13618,72.870008,19.1369178,72.869128,123.52029471148032
942,19545835,Kitchen Tales,Girgaon,South,18.9550723,72.817044,18.9543165,72.8179082,123.70762343302053
944,19139562,Punjabi Chaap Corner,Girgaon,South,18.9551085411,72.8170716763,18.9543165,72.8179082,124.40401263379722
943,19287831,Snack Box,Girgaon,South,18.9551085411,72.8170716763,18.9543165,72.8179082,124.40401263379722
7913,19595899,Chocolate City,Oshiwara,West,19.151273768,72.8337633438,19.1502437,72.8342294,124.48356510571335
5702,19569886,Sahar Kitchen,Sahar,West,19.1005838,72.8678425,19.0995955,72.867284,124.50282546213124
5703,19578098,Asian Street Factory,Sahar,West,19.1005838,72.8678425,19.0995955,72.867284,124.50282546213124
1704,18537222,Mithaas,Mumbai Central,South,18.9687963464,72.8201568872,18.9695855,72.8193152,124.55655858242677
7307,19300278,Sai Prasad Veg Restaurant,Jogeshwari (West),West,19.135283,72.837204,19.136394,72.8373817,124.86156587593122
7306,35933,Sai Sagar Veg & Non Veg,Jogeshwari (West),West,19.135283,72.837204,19.136394,72.8373817,124.86156587593122
1513,48979,Food Spot,Nagpada,South,18.9670784566,72.8288526088,18.9681782,72.8286009,125.03917826090093
8901,19174146,Krish Sandwich Point,Malad (East),North,19.1850709954,72.856958136,19.1860219,72.8563181,125.21316458292812
2600,48015,Paninaro,Parel,South,19.0087616126,72.8367446736,19.0094817,72.8376614,125.21952508657608
9209,19330769,South Kafe,Kandivli (West),North,19.201753,72.84876,19.2006415,72.8485534,125.40403273125797
3412,17810262,Gupta Chat Counter,Matunga,West,19.0276881939,72.8513127565,19.0274356,72.8501467,125.67306632439362
9128,18614152,The Burrow Cafe,Orlem,North,19.1940292545,72.8378685191,19.1944819,72.8389662,125.70171510751805
1705,18789225,Punjab Sind,Mumbai Central,South,18.9686688845,72.8200174123,18.9695855,72.8193152,125.78181762775591
7308,19502700,Sai Coastal & Kabab Corner,Jogeshwari (West),West,19.135263,72.837306,19.136394,72.8373817,125.93352215849758
8110,35251,Natural Ice Cream,Goregaon (West),North,19.1627449483,72.8422294557,19.1633281,72.8411995,126.04593269417977
7000,18958613,Lucknowee Dum Biryani,Janata Colony,West,19.131392937,72.8577115014,19.132504,72.8574656,126.13719917571893
4329,47753,Shree Ramnath,Bandra (East),West,19.0606687334,72.8504048288,19.0616565,72.8498111,126.2432240574406
9507,19420544,Radha Restaurant,Poisar,North,19.2122555309,72.8459651023,19.2132196,72.8466024,126.29188079423218
6115,18978317,Haazri,Saki Naka,East,19.1071084342,72.8833336383,19.1082208,72.8835824,126.34143950929504
9508,18488325,Bharathi Hotel,Poisar,North,19.2125116628,72.8475452587,19.2132196,72.8466024,126.40388657745348
2312,18709847,Hotel Mango,Delisle Road,South,18.9943983517,72.8310832009,18.9932602,72.8310115,126.70142817718293
3200,19050244,Aai Cha Dabba,Worli Koliwada,South,19.02116,72.816512,19.0211024,72.8177207,127.14423060473875
6116,17945196,Burger King,Saki Naka,East,19.1076726633,72.8825182468,19.1082208,72.8835824,127.26268760954618
2709,16538504,Garcia's Pizza,Prabhadevi,South,19.0150113313,72.8267477453,19.0148811,72.8279556,127.72147667169318
8403,45089,Natural Ice Cream,Mulund (East),East,19.1698511923,72.9600193352,19.1704719,72.9610447,127.83163189904593
945,18791330,Masala Club,Girgaon,South,18.9552813579,72.8172430024,18.9543165,72.8179082,127.99915122398396
5704,19499451,Z3 Authentic Chinese Cuisine,Sahar,West,19.0993148,72.8661,19.0995955,72.867284,128.18260568907584
9509,18685703,Desi Swad Shop,Poisar,North,19.2142485364,72.8460482508,19.2132196,72.8466024,128.27775326719714
8111,19142224,Bakers & More,Goregaon (West),North,19.163109,72.8424,19.1633281,72.8411995,128.34391369564435
2313,35587,Janta,Delisle Road,South,18.9944107155,72.830902487,18.9932602,72.8310115,128.36325955795377
6117,34328,Hotel Mahalaxmi Garden - 2,Saki Naka,East,19.1072174152,72.8841939569,19.1082208,72.8835824,128.67053880223622
1203,17830200,Food Spot,Dongri,South,18.9614293977,72.8376854584,18.9622265,72.836795,128.85570705236472
2710,18643168,Sarang Malavni Katta,Prabhadevi,South,19.0137751,72.8275812417,19.0148811,72.8279556,129.04415600343322
946,18529626,Rising Cafe & Diner,Girgaon,South,18.953199934,72.8175658733,18.9543165,72.8179082,129.18953374638326
7,18527703,The Charcoal Kitchen,Colaba,South,18.9161345736,72.8265137225,18.915091,72.8259691,129.33018011981545
8404,19291606,Love Bites,Mulund (East),East,19.1693375287,72.9613245651,19.1704719,72.9610447,129.43462871070128
947,18938892,Food Rush,Girgaon,South,18.955204938,72.8187054768,18.9543165,72.8179082,129.49321053270722
4401,18947787,Khan Saab Food Park,Shivaji Nagar,East,19.063947,72.926122,19.0637885,72.9249,129.55014646307046
9925,42903,Sarvoday,Borivali West,North,19.2285582073,72.8472029418,19.2294561,72.8479905,129.55406888134104
1514,41596,Zam Zam Sweets & Bakery,Nagpada,South,18.967028042,72.8283936158,18.9681782,72.8286009,129.6545263540208
9926,45191,Godwa,Borivali West,North,19.2282919701,72.8478741646,19.2294561,72.8479905,129.93868461015143
1515,41675,Shokolaat,Nagpada,South,18.9670248713,72.8283835575,18.9681782,72.8286009,130.18316940900323
7914,19596897,Chocolate City,Oshiwara,West,19.1513223,72.8337439,19.1502437,72.8342294,130.24512804369823
6502,34352,China Valley,Powai,East,19.1180793511,72.9063084349,19.1187195,72.9073476,130.24970020747733
4330,42566,Bikaner,Bandra (East),West,19.0606221499,72.8503974527,19.0616565,72.8498111,130.40149647167024
7309,18426873,Sudarshan Fine Dine & Wine,Jogeshwari (West),West,19.1352206042,72.8372425586,19.136394,72.8373817,131.20942679069032
5503,41424,Laxmi Chinese Restaurant,Barve Nagar,East,19.0941591486,72.8997829556,19.0952831,72.9001776,131.59503553776037
3413,18203299,Gajkeshari - The Liquid Lounge,Matunga,West,19.0276419181,72.8513814881,19.0274356,72.8501467,131.72930396324927
8112,18579006,Apsara Ice Creams,Goregaon (West),North,19.162564,72.842159,19.1633281,72.8411995,131.73310764043757
1016,17810272,Hindustan Retaurant,Mandvi,South,18.9548333022,72.8335585445,18.9550564,72.8347919,131.97428853325164
6003,19511306,Temple Flower,Juhu,West,19.107116988,72.8262743354,19.1070215,72.8275275,132.0132747963729
3414,36688,Monginis,Matunga,West,19.02632559,72.8505952656,19.0274356,72.8501467,132.04487376326864
1517,19202423,Burger House,Nagpada,South,18.9673371875,72.8277059644,18.9681782,72.8286009,132.58846273146378
1516,19451144,Barbecue Savour,Nagpada,South,18.9673371875,72.8277059644,18.9681782,72.8286009,132.58846273146378
3013,46099,Hotel Omkar,Dadar,South,19.0192493159,72.8416138887,19.019282,72.8428757,132.61398581840155
6400,19106428,Ocean Front,Tagore Nagar,East,19.118217,72.933299,19.1176276,72.9322006,132.6287183209058
7310,40269,Hotel Shree Krishna Vihar,Jogeshwari (West),West,19.1357936063,72.8362843394,19.136394,72.8373817,133.13084447810274
2201,19592806,Hotel Mumbai Darbar NX,Parel Tank Road,South,18.9905585554,72.8413097933,18.9917011,72.8417031,133.52211820276386
6118,19454814,Sai Aashish Foods Services,Saki Naka,East,19.108842,72.884671,19.1082208,72.8835824,133.53267859295693
5504,16529313,Omkar,Barve Nagar,East,19.0962905,72.9008719,19.0952831,72.9001776,133.59600809838474
10106,18979754,Jumboking - Indian Burger,Dahisar,North,19.2505160623,72.8602126613,19.2494501,72.8596206,133.7528370590418
7701,19311953,Food Forest,Bhandup West,East,19.147192,72.934757,19.1462636,72.9339461,133.75455296043393
7915,19241820,Zaika Caterers,Oshiwara,West,19.1501655216,72.8329573944,19.1502437,72.8342294,133.811931887089
9927,37214,Pappis Kitchen,Borivali West,North,19.2285654884,72.847131528,19.2294561,72.8479905,133.85806049210748
8602,19221237,The China Kitchen,Dindoshi,North,19.1739066083,72.8707926348,19.1740198,72.8695219,133.96880235339574
6119,19232964,Hybrid Theory Cafe & Bistro,Saki Naka,East,19.1081375724,72.8823081302,19.1082208,72.8835824,134.12060503315283
5505,42852,Hotel Amrut Bar And Restaurant,Barve Nagar,East,19.0942275839,72.8995569795,19.0952831,72.9001776,134.18398238237734
805,17833364,Khana Khazana,Kalbadevi,South,18.9504344919,72.8282256424,18.9492575,72.8279382,134.23711029374843
5506,18340791,Fantasy,Barve Nagar,East,19.0942944349,72.8994416445,19.0952831,72.9001776,134.3247727023391
7603,19599355,Rajpoot Chat Corner,Lokhandwala,West,19.1443987903,72.8240815526,19.1431889,72.824081,134.44920939435875
101,19312310,Cafe Parivaar,Henry Road,South,18.9215514193,72.8320813179,18.9203617,72.8318368,134.6831972109299
4610,19485031,Rollercoaster,Tilak Nagar,East,19.0694499518,72.8965830803,19.0692377,72.8978464,134.76280961572715
7604,19561319,Bikaji,Lokhandwala,West,19.1426647,72.8252389,19.1431889,72.824081,134.79352443675174
8807,19229613,Chef Chocola,Malad (West),North,19.1833078478,72.8401695192,19.1840129,72.8412155,134.87129595161994
6401,18995547,Made In China,Tagore Nagar,East,19.1182038472,72.931069918,19.1176276,72.9322006,134.88641489666
600,19610897,Namah Lounge Room,Mumbai CSMT,South,18.9404479503,72.8361046314,18.94136785,72.83526733695547,134.88836677505614
2712,19246846,Dadi Ke Kulche,Prabhadevi,South,19.016095,72.828028,19.0148811,72.8279556,135.1090598085638
2713,19246868,Bebe De Parathe,Prabhadevi,South,19.016095,72.828028,19.0148811,72.8279556,135.1090598085638
2711,19246815,Biryaan,Prabhadevi,South,19.016095,72.828028,19.0148811,72.8279556,135.1090598085638
3014,37439,Anandashram Pure Veg.,Dadar,South,19.0202664795,72.8421198204,19.019282,72.8428757,135.18368691419582
9401,19261702,Joy Cafeteria,Thakur Village,North,19.2102108944,72.8771035373,19.2097189,72.8759248,135.23791561385855
1706,18729499,Shakey Wakey,Mumbai Central,South,18.968755,72.820256,18.9695855,72.8193152,135.2494241668455
948,40687,Panshikar,Girgaon,South,18.955208426,72.8187849373,18.9543165,72.8179082,135.33099203008467
1305,17759230,Choconuts,Grant Road,South,18.9654033543,72.8127747774,18.9644472,72.8135727,135.3568924216751
4611,19341485,Vandana Foods,Tilak Nagar,East,19.068196,72.897175,19.0692377,72.8978464,135.54546707692404
4101,19496895,Nandu's Food Shack,Chembur West,East,19.0576420507,72.8982262686,19.0571098,72.8993875,135.55384677263416
6120,19248477,Waffle By Tea Villa Cafe,Saki Naka,East,19.107761,72.882386,19.1082208,72.8835824,135.6184560910871
10107,18441584,MOJO Pizza - 2X Toppings,Dahisar,North,19.2483554176,72.8590445593,19.2494501,72.8596206,135.83146800006517
8,19243922,Nothing But Chicken,Colaba,South,18.916172,72.826575,18.915091,72.8259691,135.96809519977148
8808,19227325,Nanumal Bhojraj,Malad (West),North,19.182831,72.841557,19.1840129,72.8412155,136.14154096298475
949,18894603,Shree Sai Snacks Fast Food and Cold Drink Centre,Girgaon,South,18.9552445749,72.8187540919,18.9543165,72.8179082,136.1616332331015
9928,19165629,Paris Dessert Room,Borivali West,North,19.230618444,72.8475777805,19.2294561,72.8479905,136.23154441271447
8603,42582,Shenoy's,Dindoshi,North,19.1730946463,72.8686663136,19.1740198,72.8695219,136.50651415751793
4331,18741446,Bandra Food Box,Bandra (East),West,19.0604316965,72.8499180079,19.0616565,72.8498111,136.56882942224058
8604,42850,Cheesecake Republic,Dindoshi,North,19.1730943297,72.868665643,19.1740198,72.8695219,136.579319461337
4200,34201,Sahibaan,Bandra (West),West,19.0593269985,72.8294980153,19.0583358,72.8302669,136.5809309529837
4102,46439,Tibb's Frankie,Chembur West,East,19.0570912779,72.8980841115,19.0571098,72.8993875,136.91655886189844
950,48604,Patil Juice Centre,Girgaon,South,18.9531124147,72.8176221997,18.9543165,72.8179082,137.13884774352977
7311,34860,Amber,Jogeshwari (West),West,19.135161,72.83746,19.136394,72.8373817,137.26363107347728
4103,18642419,Occasions Cakes Chocolates And More,Chembur West,East,19.057278,72.89809,19.0571098,72.8993875,137.55830032684776
6613,19541442,Goswamy G Dairy,MIDC,West,19.119555,72.863802,19.1205119,72.8646365,137.7832045193354
6004,19559872,Nitin Chai Wala,Juhu,West,19.1075887,72.8263605,19.1070215,72.8275275,137.7986300133958
102,43397,Starbucks Coffee,Henry Road,South,18.9214458053,72.8324742615,18.9203617,72.8318368,137.85403111622682
1017,18280434,Faham Restaurant & Lounge,Mandvi,South,18.9541791324,72.8357217461,18.9550564,72.8347919,138.03640254731445
6402,18653298,King of Frankie with Paratha,Tagore Nagar,East,19.1183197901,72.931105122,19.1176276,72.9322006,138.3707452182287
4201,19501952,My Tiffin,Bandra (West),West,19.0592823161,72.829410173,19.0583358,72.8302669,138.42154675660757
9402,49281,Smokin' Joe's,Thakur Village,North,19.210722,72.876707,19.2097189,72.8759248,138.4302486445161
6919,40726,Monginis,Versova,West,19.1299697342,72.8226624057,19.13025205,72.8213774957082,138.50061551305893
4504,18557991,Jumboking - Indian Burger,Kurla,East,19.0662649878,72.8785703704,19.0652797,72.8793805,138.6649144343392
8405,42846,Front Street Bakery,Mulund (East),East,19.1699224463,72.9598584026,19.1704719,72.9610447,138.68178283619366
951,16505315,Cake Bites,Girgaon,South,18.9540592697,72.8166136891,18.9543165,72.8179082,139.02318341786443
6920,18758041,Jumboking,Versova,West,19.1291211283,72.8219539672,19.13025205,72.8213774957082,139.48812581607055
10003,18611519,Desi Adda,Mount Poinsur,North,19.2442090905,72.8519343585,19.2432246,72.8527611,139.61471444880127
952,19509464,Chai Estate South Indian Tiffin's,Girgaon,South,18.9554663,72.8184458,18.9543165,72.8179082,139.70684626659136
6305,19146495,The Boab,Andheri (East),West,19.11699,72.853568,19.1158835,72.854202,139.82298850576706
9929,19560640,The Greenroom,Borivali West,North,19.230669728,72.8483438864,19.2294561,72.8479905,139.86885696822603
1518,41610,Zahoora Sweets & Confectionery,Nagpada,South,18.9671983099,72.8277636319,18.9681782,72.8286009,139.99742609217586
953,19053203,Lokoman,Girgaon,South,18.9551691063,72.8188892081,18.9543165,72.8179082,140.02536650822412
6503,17806994,Mirchi And Mime,Powai,East,19.1199790949,72.9072991759,19.1187195,72.9073476,140.0649356715711
6504,18548172,Hitchki,Powai,East,19.1199800452,72.9072995111,19.1187195,72.9073476,140.1691961528336
5507,19065849,Special Pav Bhaji And Pizza Centre,Barve Nagar,East,19.0962692229,72.9010104015,19.0952831,72.9001776,140.20131811891733
954,18368211,Pizza Factory,Girgaon,South,18.9552128654,72.8188479692,18.9543165,72.8179082,140.27559755756113
4612,16538465,Hotel Sai Sadguru,Tilak Nagar,East,19.0703280163,72.898522988,19.0692377,72.8978464,140.46213760304707
6005,19153470,The Butler And The Bayleaf,Juhu,West,19.1070384203,72.8261851519,19.1070215,72.8275275,140.96324289737154
3706,19592704,Myra's Kitchen,Mahim,West,19.0427807,72.8385845,19.0423145,72.8398344,141.14584312924862
6006,38711,Smokin' Joe's,Juhu,West,19.1075903499,72.826323395,19.1070215,72.8275275,141.35642976059543
4104,40845,Oven Hot The Bake Shop,Chembur West,East,19.0569429682,72.8980522603,19.0571098,72.8993875,141.46667443644944
5601,19580634,Tea Post - Apni Chai Ki Dukan,Vile Parle (East),West,19.0975529908,72.8485406729,19.0962884,72.8483799,141.53828629235593
300,43059,Akashwani MLA Hostel Canteen,Mantralaya,South,18.928873825,72.8266183287,18.92766235,72.82703930367538,141.7114758409374
1018,19272240,Baba Tikka,Mandvi,South,18.9550441707,72.8334435448,18.9550564,72.8347919,141.71758192674534
1204,19273306,Sudarshan Pure Veg,Dongri,South,18.9609778706,72.8370708972,18.9622265,72.836795,141.7513006074058
8809,19569571,Dk's Goan Katta,Malad (West),North,19.18275,72.84102,19.1840129,72.8412155,141.83195168180347
6403,18590073,Famous Fresh Juice,Tagore Nagar,East,19.117435,72.930862,19.1176276,72.9322006,142.1684764863465
6700,19516540,Shree Laxmi Farsan,Cama Road,West,19.119513,72.844485,19.1206513,72.8438656,142.23239111877885
5000,19352198,Fries And Curries,Kalina Camp,West,19.081175,72.863223,19.081481150000002,72.86190756491538,142.27367489223903
3015,18453677,Ronaldo's,Dadar,South,19.0202522158,72.841989398,19.019282,72.8428757,142.45792798804675
402,43867,SnowBite Natural Ice Cream,Hutatma Chowk,South,18.9323706299,72.8323032707,18.933307,72.831377,142.502247030133
3016,45820,Mama Kane,Dadar,South,19.0183636906,72.8419256955,19.019282,72.8428757,142.74093429194443
3301,18089665,Chef's Delight,Bhavanishankar Road,South,19.0217362683,72.8369086236,19.022237,72.8356574,142.74200064858357
1707,19354827,Muchhad  Kulfi & Falooda,Mumbai Central,South,18.9687684,72.8203654,18.9695855,72.8193152,142.91717399707446
955,18467920,Mr Kalam,Girgaon,South,18.9530524829,72.8181599826,18.9543165,72.8179082,142.93496609568177
6404,18591918,Bombay Fusion Restaurant,Tagore Nagar,East,19.1189121746,72.9321310669,19.1176276,72.9322006,142.9350687277485
403,39112,Fountain Inn,Hutatma Chowk,South,18.9328441169,72.8326465935,18.933307,72.831377,143.02093574991213
103,36478,The Marina Upper deck - Rooftop Cafe- Sea Palace Hotel,Henry Road,South,18.9191581206,72.8323337808,18.9203617,72.8318368,143.58922472533288
956,18224499,Jamnagari Farsan Mart,Girgaon,South,18.9556082824,72.8178451583,18.9543165,72.8179082,143.7022901132812
1519,41611,Tahoora Sweets,Nagpada,South,18.9672173342,72.8276804835,18.9681782,72.8286009,144.07439998040158
9129,47468,Cherry's Kitchen,Orlem,North,19.19554,72.83817,19.1944819,72.8389662,144.2480273130116
1708,18607483,Wowfillss,Mumbai Central,South,18.9687231034,72.820341289,18.9695855,72.8193152,144.26324989857034
10004,19092187,Vinod Sandwich,Mount Poinsur,North,19.241984104,72.8523487598,19.2432246,72.8527611,144.47920690600756
957,34037,Raja Refreshments,Girgaon,South,18.9551085411,72.8190005198,18.9543165,72.8179082,144.65924256486542
6921,19586138,Zarine Manchanda Cafe,Versova,West,19.1302355,72.8199993,19.13025205,72.8213774957082,144.70617616141413
958,41616,Cafe Coffee Day,Girgaon,South,18.954420443,72.8165345639,18.9543165,72.8179082,144.8299959171199
1306,18571350,Bomberry,Grant Road,South,18.9655098916,72.8127747774,18.9644472,72.8135727,144.8360842380042
8810,19360858,Dattakrupa Homely Food,Malad (West),North,19.182712,72.841114,19.1840129,72.8412155,144.95463660891747
2314,19098793,Masala Warehouse,Delisle Road,South,18.9945498874,72.8312206641,18.9932602,72.8310115,144.99203712648705
404,42153,Roshni Food Point,Hutatma Chowk,South,18.9336283962,72.8327153251,18.933307,72.831377,145.13806467446338
7916,19589761,Momo's Mafia,Oshiwara,West,19.1515472,72.834126,19.1502437,72.8342294,145.25770410227253
7917,19588312,Momo's Mafia,Oshiwara,West,19.1515472,72.834126,19.1502437,72.8342294,145.25770410227253
2315,19360967,Food Science,Delisle Road,South,18.9920355813,72.8314969316,18.9932602,72.8310115,145.3309355296669
959,35349,Cafe Coffee Day,Girgaon,South,18.9543719272,72.8165241703,18.9543165,72.8179082,145.59138969407755
3017,19546055,Swa Varhadi Misal ,Dadar,South,19.0199099,72.8416581,19.019282,72.8428757,145.71183022904916
9403,19500894,Bombay Dessert Company,Thakur Village,North,19.209157,72.87467,19.2097189,72.8759248,145.73090323025403
1709,18480336,Mumbai Central Juice & Snacks Centre,Mumbai Central,South,18.968749103,72.8203858808,18.9695855,72.8193152,145.94197567713655
8811,19019460,Froyodel Yogurts & More,Malad (West),North,19.1832812484,72.8400588781,19.1840129,72.8412155,146.10483396732025
4900,18813709,Jhama Sweets,Rajawadi,East,19.0771318292,72.9031665623,19.0782013,72.90235517639476,146.23757775018558
4810,18895961,Apna Punjab,Khar,West,19.0711934013,72.8340939805,19.0724575,72.8337068,146.24034784777504
6007,19293300,VICE-Global Tapas Bar,Juhu,West,19.1074315752,72.8262039274,19.1070215,72.8275275,146.25925615124285
4202,19583279,Chaayos - Meri Wali Chai,Bandra (West),West,19.059374,72.829402,19.0583358,72.8302669,146.8428314750413
806,19214195,Akash Sagar,Kalbadevi,South,18.9504639826,72.8285089508,18.9492575,72.8279382,146.87880115491566
1019,19414632,Manavi Restaurant,Mandvi,South,18.9551371,72.8361872,18.9550564,72.8347919,146.91883503968936
9130,19060824,Dwarka Irani Chai And Traditional Koli Seafood,Orlem,North,19.195316,72.83788,19.1944819,72.8389662,146.92135162871563
9404,19528650,Waterside,Thakur Village,North,19.210901,72.875297,19.2097189,72.8759248,146.95523954619054
1710,18701758,Shark Bite,Mumbai Central,South,18.9686752259,72.8203302249,18.9695855,72.8193152,147.00522509057225
4901,18771337,Evergreen Snacks,Rajawadi,East,19.0771359484,72.9031863436,19.0782013,72.90235517639476,147.0891136729973
960,18579275,Cake-O-Holic,Girgaon,South,18.9530277492,72.8182330728,18.9543165,72.8179082,147.22658109585737
1405,19443777,Shams Farsan & Wafer Ideal Store,Mazgaon,South,18.966899,72.839311,18.9680519,72.84001187036267,147.77979907246626
8812,17851888,Mothers Bakery Cake Shop,Malad (West),North,19.1851397097,72.8419645876,19.1840129,72.8412155,147.8522804654627
405,18429248,Radhey Sandwich Corner,Hutatma Chowk,South,18.932288491,72.8322828189,18.933307,72.831377,147.90458907149184
5900,19504118,Jai Bhavani Maruti Pav Bhaji Center,Vile Parle (West),West,19.102543842,72.8404209763,19.1038725,72.8402903,148.2835209567511
6008,18365267,The Terrace,Juhu,West,19.1074597708,72.8261911869,19.1070215,72.8275275,148.5287326866517
6009,17843844,Home Made,Juhu,West,19.1062818874,72.8263480961,19.1070215,72.8275275,148.633095604541
9930,18326061,The Veg Treat Royale,Borivali West,North,19.2307388473,72.8475844686,19.2294561,72.8479905,148.77565300338455
4700,18862319,Ek Cutting,Vidya Nagari,West,19.0710067624,72.8628720716,19.0723479,72.8629187,149.11450537092293
2714,19185478,Frozen Bottle,Prabhadevi,South,19.013553,72.827745,19.0148811,72.8279556,149.23461793760066
1406,19050671,Arbeek Shawarma's And More,Mazgaon,South,18.969093,72.840909,18.9680519,72.84001187036267,149.24286921792407
9301,38052,Raju's Kitchen,Kandivli (East),North,19.2088699341,72.8632736206,19.2080542,72.8621435,149.2699069495803
4902,39983,Hotel Durga Prasad,Rajawadi,East,19.0771920331,72.9014164209,19.0782013,72.90235517639476,149.32732561886283
807,18947091,Maa Ka Khana,Kalbadevi,South,18.9487665159,72.8266139701,18.9492575,72.8279382,149.49278337108112
8406,44583,Tender Fresh Ice Creams,Mulund (East),East,19.1700054177,72.9597078636,19.1704719,72.9610447,149.58733937383448
6922,19174476,FoodPost,Versova,West,19.1296646,72.8226602,19.13025205,72.8213774957082,149.65740831788438
2601,19313284,Poori Baatein,Parel,South,19.009493,72.836236,19.0094817,72.8376614,149.76472565877455
1020,19276306,Janata Ice-Cream And Fast Food,Mandvi,South,18.9548463031,72.8333835304,18.9550564,72.8347919,149.84857735048809
1021,18223201,Mashaallah Cuisine,Mandvi,South,18.9548463031,72.8333835304,18.9550564,72.8347919,149.84857735048809
3806,19479590,Sion Restaurant & Stores,Sion East,West,19.0435327534,72.864147462,19.0428153,72.8653563,149.93497237025554
2602,19268316,Taste It Chinese Zatka,Parel,South,19.01071319,72.83707833,19.0094817,72.8376614,149.93517757139725
8813,19253542,Churolls & Co.,Malad (West),North,19.1852939208,72.8416675329,19.1840129,72.8412155,150.05111178459836
6010,18735686,The Cuisine Circus,Juhu,West,19.1079232552,72.8264637664,19.1070215,72.8275275,150.05782287649723
10108,18533461,Lee's Delicacee's,Dahisar,North,19.2482126609,72.8590438887,19.2494501,72.8596206,150.23292780422423
9302,18286433,Mumbai Dreamz,Kandivli (East),North,19.208887,72.863273,19.2080542,72.8621435,150.377786177842
961,19292364,Sudhir Milk Suppliers,Girgaon,South,18.955233,72.818962,18.9543165,72.8179082,150.46272082362378
962,18368206,Icecreamo,Girgaon,South,18.9534028771,72.8168500587,18.9543165,72.8179082,150.58359494966004
1307,40487,Frosty Ice Cream,Grant Road,South,18.965650356,72.8128988296,18.9644472,72.8135727,151.29853716272723
963,18771702,Tea Villa Cafe,Girgaon,South,18.9533683134,72.8168701753,18.9543165,72.8179082,151.67166524863893
1711,18800988,Muchhad Panwala,Mumbai Central,South,18.968725957,72.8204378486,18.9695855,72.8193152,151.79797174698294
7702,36623,Monginis,Bhandup West,East,19.1455577764,72.9351844266,19.1462636,72.9339461,151.82675426685535
3807,18467878,B M Juice Center,Sion East,West,19.0441307931,72.8649618477,19.0428153,72.8653563,151.94302113082634
9703,43070,Mahalaxmi Sweets And Farsan Mart,Borivali East,North,19.2269645768,72.860507369,19.2267228,72.8619328,151.95993797364548
4105,19243441,Pizza And Pasta By Tea Villa Cafe,Chembur West,East,19.0563525803,72.9005926475,19.0571098,72.8993875,151.99913686450103
4613,19468735,The Bombay Street,Tilak Nagar,East,19.069292,72.896399,19.0692377,72.8978464,152.135856769891
4701,19546928,Shakti Fast Food,Vidya Nagari,West,19.0722225,72.8614758,19.0723479,72.8629187,152.18012162220384
964,48908,Shri Annapurna Punjabi Dine,Girgaon,South,18.9551887662,72.8190246597,18.9543165,72.8179082,152.19741916619816
6923,18537258,Meatwale,Versova,West,19.1289031952,72.8216297552,19.13025205,72.8213774957082,152.21343149251663
10005,18977115,Pizza Caprina,Mount Poinsur,North,19.242761539,72.8541277349,19.2432246,72.8527611,152.33661136078743
2508,18637996,Oota Foods,Sewri,South,19.0001347384,72.8547714651,19.001418,72.8542575,152.48530821735162
1022,19220484,Noorani Milk And Sweet Center,Mandvi,South,18.9547634,72.833374,18.9550564,72.8347919,152.53583057379834
301,45641,Sahyadri Restaurant,Mantralaya,South,18.92672103,72.82809556,18.92766235,72.82703930367538,152.5443209646328
6505,42537,Mia Cucina,Powai,East,19.1200687438,72.9070708528,19.1187195,72.9073476,152.72453200861753
965,18748496,Natural Ice Cream,Girgaon,South,18.955088247,72.8191111609,18.9543165,72.8179082,152.77280825773445
5204,18677050,Shlok Chinese Corner,Sen Nagar,West,19.0823263928,72.8447731957,19.0828321,72.8434193,152.887000258315
966,32540,Panshikar,Girgaon,South,18.9550625623,72.8191306069,18.9543165,72.8179082,152.90221516377767
967,19523998,Gharcha Swad,Girgaon,South,18.9551031505,72.8191044554,18.9543165,72.8179082,153.12946044551973
808,46029,Friends Union Joshi Club,Kalbadevi,South,18.9481551319,72.8288187459,18.9492575,72.8279382,153.53048523698968
4614,18775969,Anna Idli,Tilak Nagar,East,19.068002767,72.8971889243,19.0692377,72.8978464,153.6260317557809
6614,18751997,Food Factory,MIDC,West,19.1194731956,72.8636706993,19.1205119,72.8646365,153.64240397417993
104,40382,Raaga Bar & Kitchen - Sea Palace Hotel,Henry Road,South,18.9190315724,72.8322409093,18.9203617,72.8318368,153.7939066854536
1023,19180515,Zee Chinese,Mandvi,South,18.9549522131,72.8333298862,18.9550564,72.8347919,154.09210382077697
2603,18959260,The Burger House,Parel,South,19.0087194525,72.8364362195,19.0094817,72.8376614,154.09317769949268
4332,48610,Aaram,Bandra (East),West,19.0603813102,72.8503884003,19.0616565,72.8498111,154.13339345977909
4106,18550195,Alforno,Chembur West,East,19.0567233556,72.8979768232,19.0571098,72.8993875,154.26789299302794
5602,48207,Kabeela,Vile Parle (East),West,19.097665469,72.8485829383,19.0962884,72.8483799,154.50511247430262
1308,18673381,Lemon N Spice,Grant Road,South,18.9630690269,72.8133531287,18.9644472,72.8135727,154.87832190383116
3708,18621207,Sweet Truth,Mahim,West,19.0409383,72.8395954,19.0423145,72.8398344,154.97740150603514
3709,18621197,Behrouz Biryani,Mahim,West,19.0409383,72.8395954,19.0423145,72.8398344,154.97740150603514
3707,18621203,Firangi Bake,Mahim,West,19.0409383,72.8395954,19.0423145,72.8398344,154.97740150603514
3710,18621200,Ovenstory Pizza,Mahim,West,19.0409383,72.8395954,19.0423145,72.8398344,154.97740150603514
4615,19414593,"Desire Instant Chai, Maza Aajaye !!",Tilak Nagar,East,19.0686933105,72.8992061376,19.0692377,72.8978464,155.0942765456609
406,18571411,Taste of Malabar,Hutatma Chowk,South,18.9336388617,72.8328105435,18.933307,72.831377,155.13090122722105
6121,42390,Kakori House,Saki Naka,East,19.1070476076,72.8843833879,19.1082208,72.8835824,155.14649886588165
5603,32751,Bharat Hindu Hotel,Vile Parle (East),West,19.0976676867,72.8486090899,19.0962884,72.8483799,155.15140416865543
8605,18509921,Order Kiya,Dindoshi,North,19.173668,72.870955,19.1740198,72.8695219,155.41626138634993
9131,19580511,Snyders Bistro,Orlem,North,19.1958245931,72.8393810074,19.1944819,72.8389662,155.42783118098373
3808,19235269,Vaishnavi Snacks Corner,Sion East,West,19.0441364978,72.864869982,19.0428153,72.8653563,155.4516796651714
3018,19245739,Swaadesi,Dadar,South,19.0198997434,72.8415478393,19.019282,72.8428757,155.4782276569637
968,40598,Vinay Health Home,Girgaon,South,18.9530724602,72.8172295913,18.9543165,72.8179082,155.55777990988776
4702,39013,Hotel Meena,Vidya Nagari,West,19.0710999235,72.8622474521,19.0723479,72.8629187,155.5717013294737
6506,19211850,Bread Butter and Beyond,Powai,East,19.1201149937,72.907224074,19.1187195,72.9073476,155.61580829558932
1024,19272242,Marhaba Fast Food Center,Mandvi,South,18.9549062342,72.8333188221,18.9550564,72.8347919,155.71610379582827
4203,34199,Tiffin,Bandra (West),West,19.0595492,72.8295243,19.0583358,72.8302669,155.77320673137774
6122,48924,Shalimar,Saki Naka,East,19.1070374698,72.8843803704,19.1082208,72.8835824,155.92386541486414
5604,16540235,The Big Apple Baking Co.,Vile Parle (East),West,19.097670855,72.8486466408,19.0962884,72.8483799,156.15813185106592
1205,18925221,Cafe Irani,Dongri,South,18.9608535736,72.8371124715,18.9622265,72.836795,156.17224983590336
9,18461704,Francesco's Pizzeria,Colaba,South,18.915686,72.824623,18.915091,72.8259691,156.19281316311273
6924,18310364,Triple F,Versova,West,19.1289374056,72.8219073638,19.13025205,72.8213774957082,156.32341123001603
6011,19555486,Tadka Ustaad,Juhu,West,19.1072001946,72.8260503499,19.1070215,72.8275275,156.3712192051585
7918,19060178,Healthy Bite,Oshiwara,West,19.149618224,72.8328950331,19.1502437,72.8342294,156.37281695210783
1309,19597113,Vijay Dairy Farm & Sweets Mart,Grant Road,South,18.9630544412,72.813357152,18.9644472,72.8135727,156.41946213876673
4204,19519995,Sai Baba Juice Centre,Bandra (West),West,19.0595596,72.8295287,19.0583358,72.8302669,156.54525003989414
4205,19454077,Z Cafe Lounge,Bandra (West),West,19.0595596,72.8295287,19.0583358,72.8302669,156.54525003989414
6925,37054,Amritsari Tadka,Versova,West,19.1289874542,72.822035104,19.13025205,72.8213774957082,156.57248151295963
8113,19006612,Aagri Katta Hotel,Goregaon (West),North,19.1641441162,72.8399824351,19.1633281,72.8411995,156.66314196162136
407,18806251,Mamma's Food Magic,Hutatma Chowk,South,18.9327968634,72.8327666223,18.933307,72.831377,156.68229723633144
1520,40558,Sarvi,Nagpada,South,18.9667785057,72.8287858889,18.9681782,72.8286009,156.75140651807243
6615,18983239,The Shake Co,MIDC,West,19.1194469027,72.8636559471,19.1205119,72.8646365,156.86159913027234
6616,19523962,Nagori Tea Point,MIDC,West,19.1194190259,72.8636891395,19.1205119,72.8646365,156.98074801818507
5112,18587852,Entisi Chocolatier,Tagore Road,West,19.081784257,72.8347420692,19.0821047,72.836199,157.09449641167978
8606,46328,Classic Comfort,Dindoshi,North,19.175399417,72.8691947088,19.1740198,72.8695219,157.10938474096756
2715,18291410,Chai Pe Charcha,Prabhadevi,South,19.0134977392,72.8276432678,19.0148811,72.8279556,157.1893582899821
969,36297,Golden Star Thali,Girgaon,South,18.9529843066,72.8174042702,18.9543165,72.8179082,157.2290381868635
4703,47772,Shree Krishna,Vidya Nagari,West,19.0713413814,72.8618662432,19.0723479,72.8629187,157.2521251706297
5605,19356280,Papillon,Vile Parle (East),West,19.0976930326,72.8485695273,19.0962884,72.8483799,157.3549769648835
6012,19456768,House Of Candy,Juhu,West,19.1074759278,72.8261080384,19.1070215,72.8275275,157.36990715080802
9601,18661951,Royal Rajput Soda Pub,Charkop,North,19.2154386293,72.826413475,19.2141193,72.8258652,157.4951277651361
6013,18762537,Arockiya Mata,Juhu,West,19.1080338196,72.8264775127,19.1070215,72.8275275,157.5129859569345
7919,19342923,Raisa Rasoi,Oshiwara,West,19.150981,72.835514,19.1502437,72.8342294,157.79049293363101
7703,18963920,Madras Cafe,Bhandup West,East,19.1454684581,72.935192138,19.1462636,72.9339461,157.85444629788253
5113,18324094,Yellow Apron,Tagore Road,West,19.0813450973,72.8374702111,19.0821047,72.836199,157.94891065884113
8607,19538610,Flavorish The Gourmet Cake Shop,Dindoshi,North,19.173325,72.868209,19.1740198,72.8695219,157.95881422155406
4206,19177240,La Loca Maria,Bandra (West),West,19.059485,72.82938,19.0583358,72.8302669,158.07051100064606
970,49799,Jai Hind Hotel,Girgaon,South,18.9557240218,72.8176889196,18.9543165,72.8179082,158.09976113886765
9405,19519722,Chai Pe Charcha,Thakur Village,North,19.2091,72.874566,19.2097189,72.8759248,158.3093699965351
7801,18984718,Palate Casual Dining And Kitchen,Bhandup (East),East,19.1491355364,72.9484445974,19.1485568,72.9470657,158.39554767045055
6926,18758049,Amritsar Tadka  A 1 Chinese,Versova,West,19.1289630635,72.8220230341,19.13025205,72.8213774957082,158.46355145654542
971,18998758,Merwans Cake Stop,Girgaon,South,18.9555794268,72.8186092526,18.9543165,72.8179082,158.50831231147788
9704,19510118,Jain Dugdhalay,Borivali East,North,19.2270335902,72.8604580835,19.2267228,72.8619328,158.54460663249773
8608,18234182,Om Snacks,Dindoshi,North,19.1727478829,72.8688369691,19.1740198,72.8695219,158.57443709855974
9931,19337716,Food Lord The Dining Bar,Borivali West,North,19.230718,72.848701,19.2294561,72.8479905,158.81330868621663
10109,19327785,3 Star Style Chinese,Dahisar,North,19.2481313116,72.8590355068,19.2494501,72.8596206,158.88680534491337
3023,19596992,On The Grillz -Grill Eat Repeat,Dadar,South,19.0205086,72.8420963,19.019282,72.8428757,159.00967164707922
4333,19536393,Laapasoo - Time for good Taste,Bandra (East),West,19.0629986,72.8492795,19.0616565,72.8498111,159.24998452930635
4616,48613,Feast Cakes and Bakes,Tilak Nagar,East,19.0690500522,72.899354808,19.0692377,72.8978464,159.79019664572235
1310,19497185,Saranga Resto,Grant Road,South,18.9653745004,72.8147348017,18.9644472,72.8135727,159.79356731315667
809,32544,Adarsh Annapoorna,Kalbadevi,South,18.9505077429,72.8286943585,18.9492575,72.8279382,160.05818105963553
6617,19258195,Urban Burger,MIDC,West,19.120623,72.863116,19.1205119,72.8646365,160.12080456706897
9602,18552914,Snaxie - The Food Joint,Charkop,North,19.215471872,72.8263913468,19.2141193,72.8258652,160.1241910394759
7704,36190,The Madras Cafe,Bhandup West,East,19.1454428028,72.9352008551,19.1462636,72.9339461,160.21928779523935
8407,17715222,Shree Swami Samarth Snacks Bar,Mulund (East),East,19.1718899966,72.9607636482,19.1704719,72.9610447,160.32352927224142
3019,18250613,Cafe Mani,Dadar,South,19.0200385771,72.8415749967,19.019282,72.8428757,160.44233074937435
6507,19211565,9th Street Pizzeria,Powai,East,19.120154908,72.9071590304,19.1187195,72.9073476,160.7339338099775
972,18079822,Jai Malhar,Girgaon,South,18.9556986543,72.8174535558,18.9543165,72.8179082,160.85307230522207
8609,19116635,UNS Biryanis And Kebabs,Dindoshi,North,19.175469402,72.8695645183,19.1740198,72.8695219,161.1492830030944
973,18716495,CP Tank Pasta,Girgaon,South,18.9528917136,72.818194516,18.9543165,72.8179082,161.16378541231134
7920,40236,Mother's Bakery,Oshiwara,West,19.1494459262,72.832945995,19.1502437,72.8342294,161.2778690999261
408,38281,Apna's Kabab's Roll's,Hutatma Chowk,South,18.9325475931,72.8326878324,18.933307,72.831377,161.57485842457925
974,44143,Jayshree,Girgaon,South,18.9529145447,72.8183165565,18.9543165,72.8179082,161.5959982251735
2716,38220,Ashok Restaurant,Prabhadevi,South,19.0161518257,72.8287044168,19.0148811,72.8279556,161.64571147658432
5114,38919,Ram And Shyam,Tagore Road,West,19.08125416,72.8374480829,19.0821047,72.836199,161.6815359524582
5205,18762339,Sagar Food Point,Sen Nagar,West,19.0829350656,72.8449559212,19.0828321,72.8434193,161.77865680087365
3809,17830860,Gurukrupa Sandwich And Frankie Corner,Sion East,West,19.0441757966,72.8648076206,19.0428153,72.8653563,161.79868647214434
7705,32514,Kamal Vihar,Bhandup West,East,19.1453408152,72.9351405054,19.1462636,72.9339461,161.97915163948932
9132,34777,Uncle's Kitchen,Orlem,North,19.1940403368,72.837494351,19.1944819,72.8389662,162.07343890728234
1206,19290977,Bombay King Burger,Dongri,South,18.960854,72.837321,18.9622265,72.836795,162.2282158383111
975,19103104,Sonal Food Plaza,Girgaon,South,18.9528577839,72.8179708868,18.9543165,72.8179082,162.23382614798518
9406,34596,Nirvana,Thakur Village,North,19.2109609,72.8767374,19.2097189,72.8759248,162.2347912110537
6123,38498,Mahesh Lunch Home,Saki Naka,East,19.1070314505,72.8844789416,19.1082208,72.8835824,162.26588598336002
976,41589,Cafe Coffee Day,Girgaon,South,18.9555816465,72.8186806664,18.9543165,72.8179082,162.34694970590118
1025,18098267,Biryania,Mandvi,South,18.9555237,72.8333283,18.9550564,72.8347919,162.35179870538892
5115,19131395,OneRoof,Tagore Road,West,19.081267151,72.8374668583,19.0821047,72.836199,162.45400343203318
5116,41553,Camy Wafers,Tagore Road,West,19.0812649331,72.8374668583,19.0821047,72.836199,162.59533338649496
5117,19265861,Pizza Heaven,Tagore Road,West,19.0812646162,72.8374671936,19.0821047,72.836199,162.64438105599478
5119,18480376,Mr Sandwich,Tagore Road,West,19.0812649331,72.8374678642,19.0821047,72.836199,162.68185235914265
5118,19222970,Maharaja Meals,Tagore Road,West,19.0812649331,72.8374678642,19.0821047,72.836199,162.68185235914265
5120,18653422,The Happy Place,Tagore Road,West,19.0812649331,72.8374685347,19.0821047,72.836199,162.7395356126627
5121,18300394,For Goodness Cake,Tagore Road,West,19.0813029556,72.8374963626,19.0821047,72.836199,162.79197973657952
5122,35643,Mayur Restaurant & Bar,Tagore Road,West,19.0812652499,72.8374695405,19.0821047,72.836199,162.80590959630098
5123,18579260,WTC Pasta,Tagore Road,West,19.0813032725,72.8374970332,19.0821047,72.836199,162.83166338070467
1600,19554716,Sbarro,Cumballa Hill,South,18.969367,72.808086,18.9693073,72.8065375,162.86735629890947
977,19130111,Jayhind Hotel,Girgaon,South,18.9557627073,72.8176557273,18.9543165,72.8179082,162.88578062622514
6124,19207861,The Bigg Small Cafe + Bar,Saki Naka,East,19.1070301833,72.8844893351,19.1082208,72.8835824,163.01573095461507
5125,45946,Summer Garden,Tagore Road,West,19.0812690522,72.8374752402,19.0821047,72.836199,163.05584214462735
5124,45913,Burg's Bite House,Tagore Road,West,19.0812690522,72.8374752402,19.0821047,72.836199,163.05584214462735
5126,18767097,Splendid Cakes And More,Tagore Road,West,19.0812674679,72.8374745697,19.0821047,72.836199,163.098331783161
5127,19214446,Jai Ganesh Chaat,Tagore Road,West,19.0812677847,72.837474905,19.0821047,72.836199,163.1071788902601
5128,34120,Shiv Mahal,Tagore Road,West,19.081269369,72.8374762461,19.0821047,72.836199,163.12265084320592
5129,19314529,Aapplemint Cookies,Tagore Road,West,19.0812674679,72.8374752402,19.0821047,72.836199,163.15617171417537
7921,19553511,Chinese King,Oshiwara,West,19.1493515424,72.8329949453,19.1502437,72.8342294,163.1625336111249
5130,18378203,Cr√©me De La Cr√©me,Tagore Road,West,19.0812646162,72.8374735639,19.0821047,72.836199,163.19265999978643
5132,18878495,Amar Juice Centre,Tagore Road,West,19.0812674679,72.8374765813,19.0821047,72.836199,163.27188984117947
5131,18977071,Smart Frankie,Tagore Road,West,19.0812674679,72.8374765813,19.0821047,72.836199,163.27188984117947
5133,19103499,Udupi Tiffins,Tagore Road,West,19.0812677847,72.8374772519,19.0821047,72.836199,163.309716980097
5134,44119,Tosita Bakery,Tagore Road,West,19.0812677847,72.8374775872,19.0821047,72.836199,163.33866331706844
5135,19246606,Thambbi,Tagore Road,West,19.0812681016,72.8374782577,19.0821047,72.836199,163.3765131596279
5136,45947,Navratna,Tagore Road,West,19.0812677847,72.837478593,19.0821047,72.836199,163.42550845724963
5137,18674239,Santacruz Fruit and Juice Centre,Tagore Road,West,19.081269369,72.8374812752,19.0821047,72.836199,163.5572249216927
5138,45327,Laxmi Dairy,Tagore Road,West,19.0812696859,72.8374819458,19.0821047,72.836199,163.59523744831225
5139,45892,Janta Juice & Fast Food,Tagore Road,West,19.081269369,72.8374819458,19.0821047,72.836199,163.61521434498536
5140,18941843,Jain Dugdhalay,Tagore Road,West,19.0812684185,72.8374812752,19.0821047,72.836199,163.6171950708279
10,18393227,Dr Pia's OWN,Colaba,South,18.9158028143,72.8246056661,18.915091,72.8259691,163.70801604116352
978,18544178,Kullcha King,Girgaon,South,18.9556384064,72.817219533,18.9543165,72.8179082,163.76006664098324
1521,18719088,Zuha's Kitchen,Nagpada,South,18.9667052618,72.82866586,18.9681782,72.8286009,163.82272658505602
8408,18253050,Sweet Treats,Mulund (East),East,19.1690772127,72.9605359957,19.1704719,72.9610447,163.92478120126378
5141,18551425,Tongue Twister,Tagore Road,West,19.0812703196,72.8374873102,19.0821047,72.836199,164.0197061015289
7922,19377638,MJ's Cartwheel Cafe & Coworks,Oshiwara,West,19.1493420407,72.8329922631,19.1502437,72.8342294,164.02909650624488
4704,18471985,Hotel Jai Bhavani,Vidya Nagari,West,19.0723813574,72.8613552824,19.0723479,72.8629187,164.24014832602822
3415,19024937,Vijay Stores,Matunga,West,19.025969961,72.8503599018,19.0274356,72.8501467,164.4021467743027
7706,19500150,Marathavada,Bhandup West,East,19.145167246,72.9349983484,19.1462636,72.9339461,164.4546342370929
8610,35831,Chakra,Dindoshi,North,19.1755004361,72.8695718944,19.1740198,72.8695219,164.6195091819431
4705,19026844,London Bubble Co.,Vidya Nagari,West,19.072915919,72.8614706174,19.0723479,72.8629187,164.66345461041828
9407,19534163,Wow Bistro - Evershine Club,Thakur Village,North,19.2112,72.875984,19.2097189,72.8759248,164.70460395731587
7923,19590504,LBC - London Bubble Co,Oshiwara,West,19.151038,72.8329,19.1502437,72.8342294,165.1254038833284
1522,42916,Femistic Chinese,Nagpada,South,18.9666935301,72.8286819533,18.9681782,72.8286009,165.2038538594532
8409,18961226,Krazzy Kabab's,Mulund (East),East,19.1690021581,72.9612873495,19.1704719,72.9610447,165.29917234159308
409,42151,India Restaurant,Hutatma Chowk,South,18.9336375931,72.8329114616,18.933307,72.831377,165.42244573335358
5206,18560757,Tavola,Sen Nagar,West,19.0831036305,72.8449689969,19.0828321,72.8434193,165.52016829827195
6125,34301,Mahalaxmi Garden,Saki Naka,East,19.10677167,72.88394887,19.1082208,72.8835824,165.56849142881012
4334,17830869,Devil's Kitchen,Bandra (East),West,19.0630527101,72.8492598608,19.0616565,72.8498111,165.60458579237314
1712,19056437,Cafe F For Fries,Mumbai Central,South,18.9683917656,72.8202591464,18.9695855,72.8193152,165.6430969933315
4811,18719125,Khao Piyo,Khar,West,19.0710150012,72.8341191262,19.0724575,72.8337068,166.04427237392318
7924,18662685,The Big Bread Studio,Oshiwara,West,19.1510076849,72.835589312,19.1502437,72.8342294,166.09424303783973
3810,38925,Hanuman Restaurant,Sion East,West,19.0419845589,72.8640408441,19.0428153,72.8653563,166.18128945329653
6014,40342,Baisakhi - Hotel King's International,Juhu,West,19.1073419195,72.825981304,19.1070215,72.8275275,166.2138652211069
6508,18388687,Madeira & Mime,Powai,East,19.1201954559,72.9070882872,19.1187195,72.9073476,166.26021622601442
4617,18494155,The Pastelworks Co.,Tilak Nagar,East,19.0681431448,72.8989276662,19.0692377,72.8978464,166.40596056249862
6618,19113111,Sindhian Authentic Sindhi Cuisine,MIDC,West,19.1193591542,72.8636244312,19.1205119,72.8646365,166.43611702735404
5142,18922584,Homely Delights by Paaneri,Tagore Road,West,19.0811939576,72.8374574706,19.0821047,72.836199,166.4630142329555
7707,19108592,Punjabi's Home Kitchen,Bhandup West,East,19.1451713635,72.9350338876,19.1462636,72.9339461,166.64996253350998
8611,35963,Shanghai Restaurant & Bar,Dindoshi,North,19.1755197532,72.8695722297,19.1740198,72.8695219,166.76615838871905
105,44023,Bayview Cafe,Henry Road,South,18.9188907516,72.8321537375,18.9203617,72.8318368,166.82015562129564
4812,16524158,Supreme Spice - Pavillion Restaurant,Khar,West,19.0726015831,72.8321208805,19.0724575,72.8337068,167.32895673037646
